{"type":"FeatureCollection","features":[{"geometry": {"type": "Point", "coordinates": [-72.04513983477113, 41.330064436013515]}, "type": "Feature", "id": 0, "properties": {"NAME": "Groton-New London Airport", "OBJECTID": 1, "title": "Groton-New London Airport"}},{"geometry": {"type": "Point", "coordinates": [-114.1255530890254, 46.251500373620104]}, "type": "Feature", "id": 1, "properties": {"NAME": "Ravalli County Airport", "OBJECTID": 2, "title": "Ravalli County Airport"}},{"geometry": {"type": "Point", "coordinates": [-118.15056827623488, 35.058643959960364]}, "type": "Feature", "id": 2, "properties": {"NAME": "Mojave Airport", "OBJECTID": 3, "title": "Mojave Airport"}},{"geometry": {"type": "Point", "coordinates": [-116.97245589874564, 32.82622679218923]}, "type": "Feature", "id": 3, "properties": {"NAME": "Gillespie Field Airport", "OBJECTID": 4, "title": "Gillespie Field Airport"}},{"geometry": {"type": "Point", "coordinates": [-80.37263479162004, 27.49748409719541]}, "type": "Feature", "id": 4, "properties": {"NAME": "St Lucie County International Airport", "OBJECTID": 5, "title": "St Lucie County International Airport"}},{"geometry": {"type": "Point", "coordinates": [-84.59706027173604, 34.01316350690888]}, "type": "Feature", "id": 5, "properties": {"NAME": "Cobb County-Mc Collum Field", "OBJECTID": 6, "title": "Cobb County-Mc Collum Field"}},{"geometry": {"type": "Point", "coordinates": [-88.91561658146065, 35.59989561825148]}, "type": "Feature", "id": 6, "properties": {"NAME": "Mc Kellar-Sipes Regional Airport", "OBJECTID": 7, "title": "Mc Kellar-Sipes Regional Airport"}},{"geometry": {"type": "Point", "coordinates": [-122.05690216134622, 37.98967199989187]}, "type": "Feature", "id": 7, "properties": {"NAME": "Buchanan Field Airport", "OBJECTID": 8, "title": "Buchanan Field Airport"}},{"geometry": {"type": "Point", "coordinates": [-77.55750247083199, 39.077979807832435]}, "type": "Feature", "id": 8, "properties": {"NAME": "Leesburg Executive Airport", "OBJECTID": 9, "title": "Leesburg Executive Airport"}},{"geometry": {"type": "Point", "coordinates": [-85.41892234365503, 44.275341369455646]}, "type": "Feature", "id": 9, "properties": {"NAME": "Wexford County Airport", "OBJECTID": 10, "title": "Wexford County Airport"}},{"geometry": {"type": "Point", "coordinates": [-72.03161185439996, 41.25131641993204]}, "type": "Feature", "id": 10, "properties": {"NAME": "Elizabeth Field Airport", "OBJECTID": 11, "title": "Elizabeth Field Airport"}},{"geometry": {"type": "Point", "coordinates": [-116.98017287756176, 32.57227672767198]}, "type": "Feature", "id": 11, "properties": {"NAME": "Brown Field Municipal Airport", "OBJECTID": 12, "title": "Brown Field Municipal Airport"}},{"geometry": {"type": "Point", "coordinates": [-94.89031349045445, 38.83092393743448]}, "type": "Feature", "id": 12, "properties": {"NAME": "New Century Aircenter Airport", "OBJECTID": 13, "title": "New Century Aircenter Airport"}},{"geometry": {"type": "Point", "coordinates": [-115.49025884877193, 48.283851385230435]}, "type": "Feature", "id": 13, "properties": {"NAME": "Libby Airport", "OBJECTID": 14, "title": "Libby Airport"}},{"geometry": {"type": "Point", "coordinates": [-87.85172800044472, 43.769777151071025]}, "type": "Feature", "id": 14, "properties": {"NAME": "Sheboygan County Memorial Airport", "OBJECTID": 15, "title": "Sheboygan County Memorial Airport"}},{"geometry": {"type": "Point", "coordinates": [-112.29515004498666, 33.5269221251628]}, "type": "Feature", "id": 15, "properties": {"NAME": "Glendale Municipal Airport", "OBJECTID": 16, "title": "Glendale Municipal Airport"}},{"geometry": {"type": "Point", "coordinates": [-81.86325317160885, 26.586615866248394]}, "type": "Feature", "id": 16, "properties": {"NAME": "Page Field Airport", "OBJECTID": 18, "title": "Page Field Airport"}},{"geometry": {"type": "Point", "coordinates": [-102.91278687939456, 30.915255116506728]}, "type": "Feature", "id": 17, "properties": {"NAME": "Fort Stockton-Pecos County Airport", "OBJECTID": 19, "title": "Fort Stockton-Pecos County Airport"}},{"geometry": {"type": "Point", "coordinates": [-76.41378012917346, 39.32567487538108]}, "type": "Feature", "id": 18, "properties": {"NAME": "Martin State Airport", "OBJECTID": 21, "title": "Martin State Airport"}},{"geometry": {"type": "Point", "coordinates": [-81.48636486550782, 41.5651190973652]}, "type": "Feature", "id": 19, "properties": {"NAME": "Cuyahoga County Airport", "OBJECTID": 22, "title": "Cuyahoga County Airport"}},{"geometry": {"type": "Point", "coordinates": [-85.7381988986184, 38.365424302713336]}, "type": "Feature", "id": 20, "properties": {"NAME": "Clark Regional Airport", "OBJECTID": 24, "title": "Clark Regional Airport"}},{"geometry": {"type": "Point", "coordinates": [-116.81959694947295, 47.77431219699889]}, "type": "Feature", "id": 21, "properties": {"NAME": "Coeur D'alene Air Terminal", "OBJECTID": 25, "title": "Coeur D'alene Air Terminal"}},{"geometry": {"type": "Point", "coordinates": [-106.10854571329793, 32.851864311279485]}, "type": "Feature", "id": 22, "properties": {"NAME": "Holloman Air Force Base", "OBJECTID": 27, "title": "Holloman Air Force Base"}},{"geometry": {"type": "Point", "coordinates": [-82.01855927777211, 27.988922178338044]}, "type": "Feature", "id": 23, "properties": {"NAME": "Lakeland Linder Regional Airport", "OBJECTID": 28, "title": "Lakeland Linder Regional Airport"}},{"geometry": {"type": "Point", "coordinates": [-85.2514850849198, 42.30728604979004]}, "type": "Feature", "id": 24, "properties": {"NAME": "W K Kellogg Airport", "OBJECTID": 30, "title": "W K Kellogg Airport"}},{"geometry": {"type": "Point", "coordinates": [-109.5754327291632, 36.110886632423956]}, "type": "Feature", "id": 25, "properties": {"NAME": "Chinle Municipal Airport", "OBJECTID": 32, "title": "Chinle Municipal Airport"}},{"geometry": {"type": "Point", "coordinates": [-70.28350743562925, 44.04848200409049]}, "type": "Feature", "id": 26, "properties": {"NAME": "Auburn/lewiston Municipal Airport", "OBJECTID": 33, "title": "Auburn/lewiston Municipal Airport"}},{"geometry": {"type": "Point", "coordinates": [-77.52483534553176, 37.40645144728654]}, "type": "Feature", "id": 27, "properties": {"NAME": "Chesterfield County Airport", "OBJECTID": 35, "title": "Chesterfield County Airport"}},{"geometry": {"type": "Point", "coordinates": [-68.01791685758258, 46.87150957892044]}, "type": "Feature", "id": 28, "properties": {"NAME": "Caribou Municipal Airport", "OBJECTID": 36, "title": "Caribou Municipal Airport"}},{"geometry": {"type": "Point", "coordinates": [-109.762345683955, 48.54297903520671]}, "type": "Feature", "id": 29, "properties": {"NAME": "Havre City-County Airport", "OBJECTID": 38, "title": "Havre City-County Airport"}},{"geometry": {"type": "Point", "coordinates": [-86.1521241823566, 40.64810169920668]}, "type": "Feature", "id": 30, "properties": {"NAME": "Grissom Air Reserve Base", "OBJECTID": 39, "title": "Grissom Air Reserve Base"}},{"geometry": {"type": "Point", "coordinates": [-87.86791287020282, 42.422167949025265]}, "type": "Feature", "id": 31, "properties": {"NAME": "Waukegan Regional Airport", "OBJECTID": 40, "title": "Waukegan Regional Airport"}},{"geometry": {"type": "Point", "coordinates": [-85.39575494942926, 40.2424796765568]}, "type": "Feature", "id": 32, "properties": {"NAME": "Delaware County Regional Airport", "OBJECTID": 41, "title": "Delaware County Regional Airport"}},{"geometry": {"type": "Point", "coordinates": [-95.65653504670837, 29.622255162890724]}, "type": "Feature", "id": 33, "properties": {"NAME": "Sugar Land Regional Airport", "OBJECTID": 42, "title": "Sugar Land Regional Airport"}},{"geometry": {"type": "Point", "coordinates": [-82.51664312392859, 40.821424904881155]}, "type": "Feature", "id": 34, "properties": {"NAME": "Mansfield Lahm Regional Airport", "OBJECTID": 47, "title": "Mansfield Lahm Regional Airport"}},{"geometry": {"type": "Point", "coordinates": [-104.80720921846819, 47.138726330554846]}, "type": "Feature", "id": 35, "properties": {"NAME": "Dawson Communicipalty Airport", "OBJECTID": 48, "title": "Dawson Communicipalty Airport"}},{"geometry": {"type": "Point", "coordinates": [-71.41784280281968, 43.57305088205112]}, "type": "Feature", "id": 36, "properties": {"NAME": "Laconia Municipal Airport", "OBJECTID": 49, "title": "Laconia Municipal Airport"}},{"geometry": {"type": "Point", "coordinates": [-97.64706392987841, 35.53417320368402]}, "type": "Feature", "id": 37, "properties": {"NAME": "Wiley Post Airport", "OBJECTID": 50, "title": "Wiley Post Airport"}},{"geometry": {"type": "Point", "coordinates": [-89.53154045605987, 43.11427794710903]}, "type": "Feature", "id": 38, "properties": {"NAME": "Middleton Municipal - Morey Field Airport", "OBJECTID": 52, "title": "Middleton Municipal - Morey Field Airport"}},{"geometry": {"type": "Point", "coordinates": [-90.41838673832456, 30.5216925301022]}, "type": "Feature", "id": 39, "properties": {"NAME": "Hammond Northshore Regional Airport", "OBJECTID": 53, "title": "Hammond Northshore Regional Airport"}},{"geometry": {"type": "Point", "coordinates": [-87.67178298728015, 30.28964459006596]}, "type": "Feature", "id": 40, "properties": {"NAME": "Jack Edwards Airport", "OBJECTID": 54, "title": "Jack Edwards Airport"}},{"geometry": {"type": "Point", "coordinates": [-81.43708611403679, 28.28981128172154]}, "type": "Feature", "id": 41, "properties": {"NAME": "Kissimmee Gateway Airport", "OBJECTID": 55, "title": "Kissimmee Gateway Airport"}},{"geometry": {"type": "Point", "coordinates": [-94.73759344273805, 38.84760894654198]}, "type": "Feature", "id": 42, "properties": {"NAME": "Johnson County Executive Airport", "OBJECTID": 56, "title": "Johnson County Executive Airport"}},{"geometry": {"type": "Point", "coordinates": [-114.84190112223985, 39.299699659368684]}, "type": "Feature", "id": 43, "properties": {"NAME": "Ely Airport /yelland Field/ Airport", "OBJECTID": 57, "title": "Ely Airport /yelland Field/ Airport"}},{"geometry": {"type": "Point", "coordinates": [-122.76482094814622, 47.49025554565742]}, "type": "Feature", "id": 44, "properties": {"NAME": "Bremerton National Airport", "OBJECTID": 58, "title": "Bremerton National Airport"}},{"geometry": {"type": "Point", "coordinates": [-120.1395760649715, 39.32004725304603]}, "type": "Feature", "id": 45, "properties": {"NAME": "Truckee-Tahoe Airport", "OBJECTID": 59, "title": "Truckee-Tahoe Airport"}},{"geometry": {"type": "Point", "coordinates": [-116.29518107644458, 48.72597832016339]}, "type": "Feature", "id": 46, "properties": {"NAME": "Boundary County Airport", "OBJECTID": 60, "title": "Boundary County Airport"}},{"geometry": {"type": "Point", "coordinates": [-83.0730322394545, 40.07978574712138]}, "type": "Feature", "id": 47, "properties": {"NAME": "Ohio State University Airport", "OBJECTID": 61, "title": "Ohio State University Airport"}},{"geometry": {"type": "Point", "coordinates": [-107.72695472298523, 39.526312210157414]}, "type": "Feature", "id": 48, "properties": {"NAME": "Garfield County Regional Airport", "OBJECTID": 62, "title": "Garfield County Regional Airport"}},{"geometry": {"type": "Point", "coordinates": [-121.49348515830201, 38.51253308170868]}, "type": "Feature", "id": 49, "properties": {"NAME": "Sacramento Executive Airport", "OBJECTID": 63, "title": "Sacramento Executive Airport"}},{"geometry": {"type": "Point", "coordinates": [-105.88626129750565, 46.427979149746875]}, "type": "Feature", "id": 50, "properties": {"NAME": "Frank Wiley Field Airport", "OBJECTID": 64, "title": "Frank Wiley Field Airport"}},{"geometry": {"type": "Point", "coordinates": [-80.71925307891934, 32.48061727288564]}, "type": "Feature", "id": 51, "properties": {"NAME": "Beaufort Marine Corps Air Station", "OBJECTID": 65, "title": "Beaufort Marine Corps Air Station"}},{"geometry": {"type": "Point", "coordinates": [-75.26514081824945, 40.13756410721237]}, "type": "Feature", "id": 52, "properties": {"NAME": "Wings Field Airport", "OBJECTID": 66, "title": "Wings Field Airport"}},{"geometry": {"type": "Point", "coordinates": [-79.93017229510957, 40.35440896723128]}, "type": "Feature", "id": 53, "properties": {"NAME": "Allegheny County Airport", "OBJECTID": 67, "title": "Allegheny County Airport"}},{"geometry": {"type": "Point", "coordinates": [-89.87028385321236, 35.356673524554935]}, "type": "Feature", "id": 54, "properties": {"NAME": "Millington Regional Airport", "OBJECTID": 68, "title": "Millington Regional Airport"}},{"geometry": {"type": "Point", "coordinates": [-122.42087611217403, 48.47089464811904]}, "type": "Feature", "id": 55, "properties": {"NAME": "Skagit Regional Airport", "OBJECTID": 69, "title": "Skagit Regional Airport"}},{"geometry": {"type": "Point", "coordinates": [-121.20023595300603, 44.09456154075042]}, "type": "Feature", "id": 56, "properties": {"NAME": "Bend Municipal Airport", "OBJECTID": 70, "title": "Bend Municipal Airport"}},{"geometry": {"type": "Point", "coordinates": [-81.39125620435811, 31.151817956061734]}, "type": "Feature", "id": 57, "properties": {"NAME": "Malcolm Mc Kinnon Airport", "OBJECTID": 72, "title": "Malcolm Mc Kinnon Airport"}},{"geometry": {"type": "Point", "coordinates": [-80.43278072795749, 25.64789362860904]}, "type": "Feature", "id": 58, "properties": {"NAME": "Kendall-Tamiami Executive Airport", "OBJECTID": 75, "title": "Kendall-Tamiami Executive Airport"}},{"geometry": {"type": "Point", "coordinates": [-86.47148162000343, 30.400066640005605]}, "type": "Feature", "id": 59, "properties": {"NAME": "Destin-Fort Walton Beach Airport", "OBJECTID": 76, "title": "Destin-Fort Walton Beach Airport"}},{"geometry": {"type": "Point", "coordinates": [-84.52136522540735, 33.779145425113086]}, "type": "Feature", "id": 60, "properties": {"NAME": "Fulton County Airport-Brown Field", "OBJECTID": 77, "title": "Fulton County Airport-Brown Field"}},{"geometry": {"type": "Point", "coordinates": [-81.33294010202144, 28.545469361439302]}, "type": "Feature", "id": 61, "properties": {"NAME": "Executive Airport", "OBJECTID": 79, "title": "Executive Airport"}},{"geometry": {"type": "Point", "coordinates": [-122.28070725491932, 38.213198977863044]}, "type": "Feature", "id": 62, "properties": {"NAME": "Napa County Airport", "OBJECTID": 80, "title": "Napa County Airport"}},{"geometry": {"type": "Point", "coordinates": [-80.00291988895333, 32.70086733033827]}, "type": "Feature", "id": 63, "properties": {"NAME": "Charleston Executive Airport", "OBJECTID": 81, "title": "Charleston Executive Airport"}},{"geometry": {"type": "Point", "coordinates": [-96.83645554018238, 32.96856479489554]}, "type": "Feature", "id": 64, "properties": {"NAME": "Addison Airport", "OBJECTID": 82, "title": "Addison Airport"}},{"geometry": {"type": "Point", "coordinates": [-105.57506556323034, 48.09452538697883]}, "type": "Feature", "id": 65, "properties": {"NAME": "L M Clayton Airport", "OBJECTID": 85, "title": "L M Clayton Airport"}},{"geometry": {"type": "Point", "coordinates": [-92.44794706298615, 41.106603445395876]}, "type": "Feature", "id": 66, "properties": {"NAME": "Ottumwa Regional Airport", "OBJECTID": 86, "title": "Ottumwa Regional Airport"}},{"geometry": {"type": "Point", "coordinates": [-122.28158696477612, 47.906992661463164]}, "type": "Feature", "id": 67, "properties": {"NAME": "Snohomish County (paine Field) Airport", "OBJECTID": 87, "title": "Snohomish County (paine Field) Airport"}},{"geometry": {"type": "Point", "coordinates": [-93.45858280807067, 44.82747495169838]}, "type": "Feature", "id": 68, "properties": {"NAME": "Flying Cloud Airport", "OBJECTID": 89, "title": "Flying Cloud Airport"}},{"geometry": {"type": "Point", "coordinates": [-116.27482483722605, 33.74844292092553]}, "type": "Feature", "id": 69, "properties": {"NAME": "Bermuda Dunes Airport", "OBJECTID": 90, "title": "Bermuda Dunes Airport"}},{"geometry": {"type": "Point", "coordinates": [-73.12616820119388, 41.163480377614064]}, "type": "Feature", "id": 70, "properties": {"NAME": "Igor I Sikorsky Memorial Airport", "OBJECTID": 91, "title": "Igor I Sikorsky Memorial Airport"}},{"geometry": {"type": "Point", "coordinates": [-83.00986541561366, 42.40920218923924]}, "type": "Feature", "id": 71, "properties": {"NAME": "Coleman A. Young Municipal Airport", "OBJECTID": 92, "title": "Coleman A. Young Municipal Airport"}},{"geometry": {"type": "Point", "coordinates": [-106.61473386893215, 48.21250728562745]}, "type": "Feature", "id": 72, "properties": {"NAME": "Wokal Field/glasgow International Airport", "OBJECTID": 93, "title": "Wokal Field/glasgow International Airport"}},{"geometry": {"type": "Point", "coordinates": [-94.90971356406635, 39.771951097187184]}, "type": "Feature", "id": 73, "properties": {"NAME": "Rosecrans Memorial Airport", "OBJECTID": 94, "title": "Rosecrans Memorial Airport"}},{"geometry": {"type": "Point", "coordinates": [-106.08943292164503, 35.61711477597606]}, "type": "Feature", "id": 74, "properties": {"NAME": "Santa Fe Municipal Airport", "OBJECTID": 96, "title": "Santa Fe Municipal Airport"}},{"geometry": {"type": "Point", "coordinates": [-97.22111900021713, 37.747589607266605]}, "type": "Feature", "id": 75, "properties": {"NAME": "Colonel James Jabara Airport", "OBJECTID": 98, "title": "Colonel James Jabara Airport"}},{"geometry": {"type": "Point", "coordinates": [-85.85811562771988, 33.58817333665155]}, "type": "Feature", "id": 76, "properties": {"NAME": "Anniston Metropolitan Airport", "OBJECTID": 99, "title": "Anniston Metropolitan Airport"}},{"geometry": {"type": "Point", "coordinates": [-108.7917874908457, 35.08323250408006]}, "type": "Feature", "id": 77, "properties": {"NAME": "Black Rock Airport", "OBJECTID": 100, "title": "Black Rock Airport"}},{"geometry": {"type": "Point", "coordinates": [-122.81065908671354, 48.0538145751521]}, "type": "Feature", "id": 78, "properties": {"NAME": "Jefferson County International Airport", "OBJECTID": 101, "title": "Jefferson County International Airport"}},{"geometry": {"type": "Point", "coordinates": [-93.54799713038983, 38.73029796272226]}, "type": "Feature", "id": 79, "properties": {"NAME": "Whiteman Air Force Base", "OBJECTID": 102, "title": "Whiteman Air Force Base"}},{"geometry": {"type": "Point", "coordinates": [-101.35804957232108, 48.41577677104323]}, "type": "Feature", "id": 80, "properties": {"NAME": "Minot Air Force Base", "OBJECTID": 103, "title": "Minot Air Force Base"}},{"geometry": {"type": "Point", "coordinates": [-75.1481687813095, 40.19984111737136]}, "type": "Feature", "id": 81, "properties": {"NAME": "Willow Grove Naval Air Station Joint Reserve Base", "OBJECTID": 104, "title": "Willow Grove Naval Air Station Joint Reserve Base"}},{"geometry": {"type": "Point", "coordinates": [-90.02825559846673, 30.042394455399005]}, "type": "Feature", "id": 82, "properties": {"NAME": "Lakefront Airport", "OBJECTID": 105, "title": "Lakefront Airport"}},{"geometry": {"type": "Point", "coordinates": [-110.88317770535832, 32.16650497049852]}, "type": "Feature", "id": 83, "properties": {"NAME": "Davis Monthan Air Force Base", "OBJECTID": 106, "title": "Davis Monthan Air Force Base"}},{"geometry": {"type": "Point", "coordinates": [-118.05144115712437, 33.790036827911024]}, "type": "Feature", "id": 84, "properties": {"NAME": "Los Alamitos Army Airfield", "OBJECTID": 107, "title": "Los Alamitos Army Airfield"}},{"geometry": {"type": "Point", "coordinates": [-116.15967878025032, 33.62667193156534]}, "type": "Feature", "id": 85, "properties": {"NAME": "Jacqueline Cochran Regional Airport", "OBJECTID": 109, "title": "Jacqueline Cochran Regional Airport"}},{"geometry": {"type": "Point", "coordinates": [-75.01058473254392, 40.08195208016798]}, "type": "Feature", "id": 86, "properties": {"NAME": "Northeast Philadelphia Airport", "OBJECTID": 111, "title": "Northeast Philadelphia Airport"}},{"geometry": {"type": "Point", "coordinates": [-105.9905927199224, 32.83994934931877]}, "type": "Feature", "id": 87, "properties": {"NAME": "Alamogordo-White Sands Regional Airport", "OBJECTID": 112, "title": "Alamogordo-White Sands Regional Airport"}},{"geometry": {"type": "Point", "coordinates": [-72.71562113663441, 42.157739592750374]}, "type": "Feature", "id": 88, "properties": {"NAME": "Barnes Municipal Airport", "OBJECTID": 113, "title": "Barnes Municipal Airport"}},{"geometry": {"type": "Point", "coordinates": [-71.50227880377957, 43.2027307915011]}, "type": "Feature", "id": 89, "properties": {"NAME": "Concord Municipal Airport", "OBJECTID": 114, "title": "Concord Municipal Airport"}},{"geometry": {"type": "Point", "coordinates": [-72.63179001106823, 40.8436633200817]}, "type": "Feature", "id": 90, "properties": {"NAME": "Francis S Gabreski Airport", "OBJECTID": 115, "title": "Francis S Gabreski Airport"}},{"geometry": {"type": "Point", "coordinates": [-89.57075788085001, 37.2253239219973]}, "type": "Feature", "id": 91, "properties": {"NAME": "Cape Girardeau Regional Airport", "OBJECTID": 116, "title": "Cape Girardeau Regional Airport"}},{"geometry": {"type": "Point", "coordinates": [-91.54814283317126, 41.639774595488234]}, "type": "Feature", "id": 92, "properties": {"NAME": "Iowa City Municipal Airport", "OBJECTID": 119, "title": "Iowa City Municipal Airport"}},{"geometry": {"type": "Point", "coordinates": [-122.65597311584497, 48.35184663966214]}, "type": "Feature", "id": 93, "properties": {"NAME": "Whidbey Island Naval Air Station /ault Field/", "OBJECTID": 120, "title": "Whidbey Island Naval Air Station /ault Field/"}},{"geometry": {"type": "Point", "coordinates": [-117.65581707788039, 47.61506414070618]}, "type": "Feature", "id": 94, "properties": {"NAME": "Fairchild Air Force Base", "OBJECTID": 121, "title": "Fairchild Air Force Base"}},{"geometry": {"type": "Point", "coordinates": [-114.05281914055388, 46.525117429812894]}, "type": "Feature", "id": 95, "properties": {"NAME": "Stevensville Airport", "OBJECTID": 124, "title": "Stevensville Airport"}},{"geometry": {"type": "Point", "coordinates": [-82.2241183733189, 29.171882464926625]}, "type": "Feature", "id": 96, "properties": {"NAME": "Ocala International-Jim Taylor Field", "OBJECTID": 125, "title": "Ocala International-Jim Taylor Field"}},{"geometry": {"type": "Point", "coordinates": [-86.52008794627994, 36.00897882602652]}, "type": "Feature", "id": 97, "properties": {"NAME": "Smyrna Airport", "OBJECTID": 126, "title": "Smyrna Airport"}},{"geometry": {"type": "Point", "coordinates": [-80.22129672845455, 27.181705028214026]}, "type": "Feature", "id": 98, "properties": {"NAME": "Witham Field Airport", "OBJECTID": 129, "title": "Witham Field Airport"}},{"geometry": {"type": "Point", "coordinates": [-92.81328450940634, 33.22097798426256]}, "type": "Feature", "id": 99, "properties": {"NAME": "South Arkansas Regional At Goodwin Field", "OBJECTID": 130, "title": "South Arkansas Regional At Goodwin Field"}},{"geometry": {"type": "Point", "coordinates": [-88.24820892573473, 41.90695181720861]}, "type": "Feature", "id": 100, "properties": {"NAME": "Dupage Airport", "OBJECTID": 131, "title": "Dupage Airport"}},{"geometry": {"type": "Point", "coordinates": [-105.11720415998639, 39.90881240995839]}, "type": "Feature", "id": 101, "properties": {"NAME": "Rocky Mountain Metropolitan Airport", "OBJECTID": 132, "title": "Rocky Mountain Metropolitan Airport"}},{"geometry": {"type": "Point", "coordinates": [-76.02174134544424, 43.99193079003243]}, "type": "Feature", "id": 102, "properties": {"NAME": "Watertown International Airport", "OBJECTID": 133, "title": "Watertown International Airport"}},{"geometry": {"type": "Point", "coordinates": [-86.25144915936454, 40.03067459415371]}, "type": "Feature", "id": 103, "properties": {"NAME": "Indianapolis Executive Airport", "OBJECTID": 134, "title": "Indianapolis Executive Airport"}},{"geometry": {"type": "Point", "coordinates": [-82.70939275649118, 34.49458963470215]}, "type": "Feature", "id": 104, "properties": {"NAME": "Anderson Regional Airport", "OBJECTID": 136, "title": "Anderson Regional Airport"}},{"geometry": {"type": "Point", "coordinates": [-84.04610649337604, 39.8259756778736]}, "type": "Feature", "id": 105, "properties": {"NAME": "Wright-Patterson Air Force Base", "OBJECTID": 138, "title": "Wright-Patterson Air Force Base"}},{"geometry": {"type": "Point", "coordinates": [-115.67167865585134, 32.82917184892176]}, "type": "Feature", "id": 106, "properties": {"NAME": "El Centro Naf Airport", "OBJECTID": 140, "title": "El Centro Naf Airport"}},{"geometry": {"type": "Point", "coordinates": [-109.06739958379029, 35.652061563826805]}, "type": "Feature", "id": 107, "properties": {"NAME": "Window Rock Airport", "OBJECTID": 141, "title": "Window Rock Airport"}},{"geometry": {"type": "Point", "coordinates": [-86.41967196447183, 36.96453502607335]}, "type": "Feature", "id": 108, "properties": {"NAME": "Bowling Green-Warren County Regional Airport", "OBJECTID": 142, "title": "Bowling Green-Warren County Regional Airport"}},{"geometry": {"type": "Point", "coordinates": [-109.46670629900973, 47.04925690593109]}, "type": "Feature", "id": 109, "properties": {"NAME": "Lewistown Municipal Airport", "OBJECTID": 143, "title": "Lewistown Municipal Airport"}},{"geometry": {"type": "Point", "coordinates": [-75.46550222484984, 44.68186992397267]}, "type": "Feature", "id": 110, "properties": {"NAME": "Ogdensburg International Airport", "OBJECTID": 144, "title": "Ogdensburg International Airport"}},{"geometry": {"type": "Point", "coordinates": [-82.52117041886191, 27.849338145071272]}, "type": "Feature", "id": 111, "properties": {"NAME": "Mac Dill Air Force Base", "OBJECTID": 147, "title": "Mac Dill Air Force Base"}},{"geometry": {"type": "Point", "coordinates": [-92.14654844556969, 34.916775368475214]}, "type": "Feature", "id": 112, "properties": {"NAME": "Little Rock Air Force Base", "OBJECTID": 148, "title": "Little Rock Air Force Base"}},{"geometry": {"type": "Point", "coordinates": [-97.31881366773217, 32.98764477515721]}, "type": "Feature", "id": 113, "properties": {"NAME": "Fort Worth Alliance Airport", "OBJECTID": 149, "title": "Fort Worth Alliance Airport"}},{"geometry": {"type": "Point", "coordinates": [-87.30758841890724, 39.451479426358446]}, "type": "Feature", "id": 114, "properties": {"NAME": "Terre Haute International-Hulman Field", "OBJECTID": 150, "title": "Terre Haute International-Hulman Field"}},{"geometry": {"type": "Point", "coordinates": [-116.56015306018276, 48.29953429278385]}, "type": "Feature", "id": 115, "properties": {"NAME": "Sandpoint Airport", "OBJECTID": 152, "title": "Sandpoint Airport"}},{"geometry": {"type": "Point", "coordinates": [-118.83876262538365, 37.62406117729273]}, "type": "Feature", "id": 116, "properties": {"NAME": "Mammoth Yosemite Airport", "OBJECTID": 153, "title": "Mammoth Yosemite Airport"}},{"geometry": {"type": "Point", "coordinates": [-80.41794680213258, 27.655561151391396]}, "type": "Feature", "id": 117, "properties": {"NAME": "Vero Beach Municipal Airport", "OBJECTID": 154, "title": "Vero Beach Municipal Airport"}},{"geometry": {"type": "Point", "coordinates": [-79.8603653310646, 41.37788214310507]}, "type": "Feature", "id": 118, "properties": {"NAME": "Venango Regional Airport", "OBJECTID": 156, "title": "Venango Regional Airport"}},{"geometry": {"type": "Point", "coordinates": [-92.5449239943377, 40.093507262619596]}, "type": "Feature", "id": 119, "properties": {"NAME": "Kirksville Regional Airport", "OBJECTID": 157, "title": "Kirksville Regional Airport"}},{"geometry": {"type": "Point", "coordinates": [-115.13445581975418, 35.97286624423617]}, "type": "Feature", "id": 120, "properties": {"NAME": "Henderson Executive Airport", "OBJECTID": 158, "title": "Henderson Executive Airport"}},{"geometry": {"type": "Point", "coordinates": [-111.85159487706568, 41.791228175583626]}, "type": "Feature", "id": 121, "properties": {"NAME": "Logan-Cache Airport", "OBJECTID": 159, "title": "Logan-Cache Airport"}},{"geometry": {"type": "Point", "coordinates": [-97.44154066645422, 32.769191688232524]}, "type": "Feature", "id": 122, "properties": {"NAME": "Fort Worth Naval Air Station Jrb/carswell Field", "OBJECTID": 161, "title": "Fort Worth Naval Air Station Jrb/carswell Field"}},{"geometry": {"type": "Point", "coordinates": [-111.72337264736825, 40.21919999445868]}, "type": "Feature", "id": 123, "properties": {"NAME": "Provo Municipal Airport", "OBJECTID": 162, "title": "Provo Municipal Airport"}},{"geometry": {"type": "Point", "coordinates": [-84.70358818243045, 45.01364756692402]}, "type": "Feature", "id": 124, "properties": {"NAME": "Gaylord Regional Airport", "OBJECTID": 163, "title": "Gaylord Regional Airport"}},{"geometry": {"type": "Point", "coordinates": [-97.36245167231164, 32.81978372865905]}, "type": "Feature", "id": 125, "properties": {"NAME": "Fort Worth Meacham International Airport", "OBJECTID": 164, "title": "Fort Worth Meacham International Airport"}},{"geometry": {"type": "Point", "coordinates": [-93.56650744240125, 41.691146453313706]}, "type": "Feature", "id": 126, "properties": {"NAME": "Ankeny Regional Airport", "OBJECTID": 165, "title": "Ankeny Regional Airport"}},{"geometry": {"type": "Point", "coordinates": [-85.57650436249548, 30.070005605714243]}, "type": "Feature", "id": 127, "properties": {"NAME": "Tyndall Air Force Base", "OBJECTID": 166, "title": "Tyndall Air Force Base"}},{"geometry": {"type": "Point", "coordinates": [-74.12458446335796, 40.18678614184989]}, "type": "Feature", "id": 128, "properties": {"NAME": "Monmouth Executive Airport", "OBJECTID": 167, "title": "Monmouth Executive Airport"}},{"geometry": {"type": "Point", "coordinates": [-118.45131821765426, 34.01583784362276]}, "type": "Feature", "id": 129, "properties": {"NAME": "Santa Monica Municipal Airport", "OBJECTID": 171, "title": "Santa Monica Municipal Airport"}},{"geometry": {"type": "Point", "coordinates": [-101.69900128026836, 39.37062856466838]}, "type": "Feature", "id": 130, "properties": {"NAME": "Renner Field /goodland Municipal/ Airport", "OBJECTID": 172, "title": "Renner Field /goodland Municipal/ Airport"}},{"geometry": {"type": "Point", "coordinates": [-75.46600179130212, 39.12950791037815]}, "type": "Feature", "id": 131, "properties": {"NAME": "Dover Air Force Base", "OBJECTID": 173, "title": "Dover Air Force Base"}},{"geometry": {"type": "Point", "coordinates": [-80.2783917262206, 25.90700471664485]}, "type": "Feature", "id": 132, "properties": {"NAME": "Opa- Locka Executive Airport", "OBJECTID": 174, "title": "Opa- Locka Executive Airport"}},{"geometry": {"type": "Point", "coordinates": [-103.10357725524642, 44.14510113503263]}, "type": "Feature", "id": 133, "properties": {"NAME": "Ellsworth Air Force Base", "OBJECTID": 175, "title": "Ellsworth Air Force Base"}},{"geometry": {"type": "Point", "coordinates": [-77.96059437064486, 35.339392025186896]}, "type": "Feature", "id": 134, "properties": {"NAME": "Seymour Johnson Air Force Base", "OBJECTID": 176, "title": "Seymour Johnson Air Force Base"}},{"geometry": {"type": "Point", "coordinates": [-99.20050732234188, 35.33984508279411]}, "type": "Feature", "id": 135, "properties": {"NAME": "Clinton-Sherman Airport", "OBJECTID": 178, "title": "Clinton-Sherman Airport"}},{"geometry": {"type": "Point", "coordinates": [-99.85539128667693, 32.41979052622037]}, "type": "Feature", "id": 136, "properties": {"NAME": "Dyess Air Force Base", "OBJECTID": 179, "title": "Dyess Air Force Base"}},{"geometry": {"type": "Point", "coordinates": [-80.10769666090448, 26.378504825685184]}, "type": "Feature", "id": 137, "properties": {"NAME": "Boca Raton Airport", "OBJECTID": 181, "title": "Boca Raton Airport"}},{"geometry": {"type": "Point", "coordinates": [-72.25166790799159, 40.95942534582633]}, "type": "Feature", "id": 138, "properties": {"NAME": "East Hampton Airport", "OBJECTID": 183, "title": "East Hampton Airport"}},{"geometry": {"type": "Point", "coordinates": [-74.84555801735308, 44.93584201899529]}, "type": "Feature", "id": 139, "properties": {"NAME": "Massena International-Richards Field", "OBJECTID": 184, "title": "Massena International-Richards Field"}},{"geometry": {"type": "Point", "coordinates": [-74.81346967457824, 40.27669914523466]}, "type": "Feature", "id": 140, "properties": {"NAME": "Trenton Mercer Airport", "OBJECTID": 185, "title": "Trenton Mercer Airport"}},{"geometry": {"type": "Point", "coordinates": [-76.41178306124056, 38.28598870569954]}, "type": "Feature", "id": 141, "properties": {"NAME": "Patuxent River Naval Air Station/trapnell Field/", "OBJECTID": 188, "title": "Patuxent River Naval Air Station/trapnell Field/"}},{"geometry": {"type": "Point", "coordinates": [-122.9376962002076, 48.48391858302273]}, "type": "Feature", "id": 142, "properties": {"NAME": "Lopez Island Airport", "OBJECTID": 189, "title": "Lopez Island Airport"}},{"geometry": {"type": "Point", "coordinates": [-86.61668520296132, 39.14602839379535]}, "type": "Feature", "id": 143, "properties": {"NAME": "Monroe County Airport", "OBJECTID": 191, "title": "Monroe County Airport"}},{"geometry": {"type": "Point", "coordinates": [-115.87243885105943, 43.043604918579604]}, "type": "Feature", "id": 144, "properties": {"NAME": "Mountain Home Air Force Base", "OBJECTID": 192, "title": "Mountain Home Air Force Base"}},{"geometry": {"type": "Point", "coordinates": [-93.66263471496404, 32.50193780243603]}, "type": "Feature", "id": 145, "properties": {"NAME": "Barksdale Air Force Base", "OBJECTID": 193, "title": "Barksdale Air Force Base"}},{"geometry": {"type": "Point", "coordinates": [-87.90154386918255, 42.11429788362125]}, "type": "Feature", "id": 146, "properties": {"NAME": "Chicago Executive Airport", "OBJECTID": 197, "title": "Chicago Executive Airport"}},{"geometry": {"type": "Point", "coordinates": [-104.84931607687054, 39.57011739658759]}, "type": "Feature", "id": 147, "properties": {"NAME": "Centennial Airport", "OBJECTID": 198, "title": "Centennial Airport"}},{"geometry": {"type": "Point", "coordinates": [-83.19296474927279, 30.968705862417153]}, "type": "Feature", "id": 148, "properties": {"NAME": "Moody Air Force Base", "OBJECTID": 199, "title": "Moody Air Force Base"}},{"geometry": {"type": "Point", "coordinates": [-77.51544644404544, 38.72142472089439]}, "type": "Feature", "id": 149, "properties": {"NAME": "Manaval Air Stationsas Regional/harry P. Davis Field", "OBJECTID": 200, "title": "Manaval Air Stationsas Regional/harry P. Davis Fi*"}},{"geometry": {"type": "Point", "coordinates": [-75.60664089308341, 39.67872997642155]}, "type": "Feature", "id": 150, "properties": {"NAME": "New Castle Airport", "OBJECTID": 202, "title": "New Castle Airport"}},{"geometry": {"type": "Point", "coordinates": [-88.86569493504726, 39.834569449978346]}, "type": "Feature", "id": 151, "properties": {"NAME": "Decatur Airport", "OBJECTID": 204, "title": "Decatur Airport"}},{"geometry": {"type": "Point", "coordinates": [-97.38664085492644, 35.41474619761749]}, "type": "Feature", "id": 152, "properties": {"NAME": "Tinker Air Force Base", "OBJECTID": 205, "title": "Tinker Air Force Base"}},{"geometry": {"type": "Point", "coordinates": [-111.97305082498815, 41.12394504689979]}, "type": "Feature", "id": 153, "properties": {"NAME": "Hill Air Force Base", "OBJECTID": 206, "title": "Hill Air Force Base"}},{"geometry": {"type": "Point", "coordinates": [-113.93806754941534, 35.259477225616024]}, "type": "Feature", "id": 154, "properties": {"NAME": "Kingman Airport", "OBJECTID": 207, "title": "Kingman Airport"}},{"geometry": {"type": "Point", "coordinates": [-74.41487658107803, 40.79935825470989]}, "type": "Feature", "id": 155, "properties": {"NAME": "Morristown Municipal Airport", "OBJECTID": 209, "title": "Morristown Municipal Airport"}},{"geometry": {"type": "Point", "coordinates": [-95.90852798985935, 41.119336244304066]}, "type": "Feature", "id": 156, "properties": {"NAME": "Offutt Air Force Base", "OBJECTID": 210, "title": "Offutt Air Force Base"}},{"geometry": {"type": "Point", "coordinates": [-118.4899842548266, 34.20981087234503]}, "type": "Feature", "id": 157, "properties": {"NAME": "Van Nuys Airport", "OBJECTID": 211, "title": "Van Nuys Airport"}},{"geometry": {"type": "Point", "coordinates": [-90.64642408471752, 35.8317155972407]}, "type": "Feature", "id": 158, "properties": {"NAME": "Jonesboro Municipal Airport", "OBJECTID": 213, "title": "Jonesboro Municipal Airport"}},{"geometry": {"type": "Point", "coordinates": [-119.31915331941582, 47.20858891772036]}, "type": "Feature", "id": 159, "properties": {"NAME": "Grant County International Airport", "OBJECTID": 215, "title": "Grant County International Airport"}},{"geometry": {"type": "Point", "coordinates": [-93.09622864625794, 34.47803420454932]}, "type": "Feature", "id": 160, "properties": {"NAME": "Memorial Field Airport", "OBJECTID": 216, "title": "Memorial Field Airport"}},{"geometry": {"type": "Point", "coordinates": [-98.8592025013267, 38.34425658049935]}, "type": "Feature", "id": 161, "properties": {"NAME": "Great Bend Municipal Airport", "OBJECTID": 217, "title": "Great Bend Municipal Airport"}},{"geometry": {"type": "Point", "coordinates": [-106.9219818720232, 32.28942222320819]}, "type": "Feature", "id": 162, "properties": {"NAME": "Las Cruces International Airport", "OBJECTID": 219, "title": "Las Cruces International Airport"}},{"geometry": {"type": "Point", "coordinates": [-94.1700640786562, 36.00510145704811]}, "type": "Feature", "id": 163, "properties": {"NAME": "Drake Field Airport", "OBJECTID": 222, "title": "Drake Field Airport"}},{"geometry": {"type": "Point", "coordinates": [-90.13140404002473, 46.5274834436122]}, "type": "Feature", "id": 164, "properties": {"NAME": "Gogebic-iIon County Airport", "OBJECTID": 223, "title": "Gogebic-iIon County Airport"}},{"geometry": {"type": "Point", "coordinates": [-90.02659357129556, 29.82722037225568]}, "type": "Feature", "id": 165, "properties": {"NAME": "New Orleans Naval Air Station Jrb/Alvin Callender Field", "OBJECTID": 224, "title": "New Orleans Naval Air Station Jrb/Alvin Callender*"}},{"geometry": {"type": "Point", "coordinates": [-75.40703008611922, 43.23381468905092]}, "type": "Feature", "id": 166, "properties": {"NAME": "Griffiss International Airport", "OBJECTID": 227, "title": "Griffiss International Airport"}},{"geometry": {"type": "Point", "coordinates": [-87.61140606916445, 33.22063419379623]}, "type": "Feature", "id": 167, "properties": {"NAME": "Tuscaloosa Regional Airport", "OBJECTID": 228, "title": "Tuscaloosa Regional Airport"}},{"geometry": {"type": "Point", "coordinates": [-122.66241117954411, 48.49899864636353]}, "type": "Feature", "id": 168, "properties": {"NAME": "Anacortes Airport", "OBJECTID": 230, "title": "Anacortes Airport"}},{"geometry": {"type": "Point", "coordinates": [-119.11959032333601, 34.11927679619731]}, "type": "Feature", "id": 169, "properties": {"NAME": "Point Mugu Naval Air Station (Naval Base Ventura County)", "OBJECTID": 231, "title": "Point Mugu Naval Air Station (Naval Base Ventura *"}},{"geometry": {"type": "Point", "coordinates": [-76.29436312276908, 40.122369047757445]}, "type": "Feature", "id": 170, "properties": {"NAME": "Lancaster Airport", "OBJECTID": 232, "title": "Lancaster Airport"}},{"geometry": {"type": "Point", "coordinates": [-119.39290160861134, 36.31867200690829]}, "type": "Feature", "id": 171, "properties": {"NAME": "Visalia Municipal Airport", "OBJECTID": 234, "title": "Visalia Municipal Airport"}},{"geometry": {"type": "Point", "coordinates": [-77.72650254134112, 39.70850792851769]}, "type": "Feature", "id": 172, "properties": {"NAME": "Hagerstown Regional-Richard A Henson Field", "OBJECTID": 235, "title": "Hagerstown Regional-Richard A Henson Field"}},{"geometry": {"type": "Point", "coordinates": [-80.47057408628535, 33.972722633877424]}, "type": "Feature", "id": 173, "properties": {"NAME": "Shaw Air Force Base", "OBJECTID": 237, "title": "Shaw Air Force Base"}},{"geometry": {"type": "Point", "coordinates": [-103.21703706711929, 32.68753345799121]}, "type": "Feature", "id": 174, "properties": {"NAME": "Lea County Regional Airport", "OBJECTID": 238, "title": "Lea County Regional Airport"}},{"geometry": {"type": "Point", "coordinates": [-84.30197618052654, 33.87561747769189]}, "type": "Feature", "id": 175, "properties": {"NAME": "Dekalb-Peachtree Airport", "OBJECTID": 239, "title": "Dekalb-Peachtree Airport"}},{"geometry": {"type": "Point", "coordinates": [-102.80378785428582, 42.053228905558]}, "type": "Feature", "id": 176, "properties": {"NAME": "Alliance Municipal Airport", "OBJECTID": 240, "title": "Alliance Municipal Airport"}},{"geometry": {"type": "Point", "coordinates": [-83.53096957763245, 42.239312148803435]}, "type": "Feature", "id": 177, "properties": {"NAME": "Willow Run Airport", "OBJECTID": 241, "title": "Willow Run Airport"}},{"geometry": {"type": "Point", "coordinates": [-73.13525122759938, 41.478564417998314]}, "type": "Feature", "id": 178, "properties": {"NAME": "Waterbury-Oxford Airport", "OBJECTID": 243, "title": "Waterbury-Oxford Airport"}},{"geometry": {"type": "Point", "coordinates": [-86.68933769585203, 30.427838618219425]}, "type": "Feature", "id": 179, "properties": {"NAME": "Hurlburt Field Airport", "OBJECTID": 244, "title": "Hurlburt Field Airport"}},{"geometry": {"type": "Point", "coordinates": [-100.59209212172601, 40.2062848058805]}, "type": "Feature", "id": 180, "properties": {"NAME": "Mc Cook Ben Nelson Regional Airport", "OBJECTID": 247, "title": "Mc Cook Ben Nelson Regional Airport"}},{"geometry": {"type": "Point", "coordinates": [-123.87870877711993, 46.1579773880548]}, "type": "Feature", "id": 181, "properties": {"NAME": "Astoria Regional Airport", "OBJECTID": 248, "title": "Astoria Regional Airport"}},{"geometry": {"type": "Point", "coordinates": [-90.15622715955129, 38.57073111511835]}, "type": "Feature", "id": 182, "properties": {"NAME": "St Louis Downtown Airport", "OBJECTID": 250, "title": "St Louis Downtown Airport"}},{"geometry": {"type": "Point", "coordinates": [-93.15473583588755, 36.26152758372916]}, "type": "Feature", "id": 183, "properties": {"NAME": "Boone County Airport", "OBJECTID": 251, "title": "Boone County Airport"}},{"geometry": {"type": "Point", "coordinates": [-95.15875691938783, 29.607338166956026]}, "type": "Feature", "id": 184, "properties": {"NAME": "Ellington Field Airport", "OBJECTID": 253, "title": "Ellington Field Airport"}},{"geometry": {"type": "Point", "coordinates": [-86.93689438266, 40.41231362513793]}, "type": "Feature", "id": 185, "properties": {"NAME": "Purdue University Airport", "OBJECTID": 254, "title": "Purdue University Airport"}},{"geometry": {"type": "Point", "coordinates": [-98.58117481292504, 29.384232997648212]}, "type": "Feature", "id": 186, "properties": {"NAME": "Lackland Air Force Base (Kelly Field Annex)", "OBJECTID": 257, "title": "Lackland Air Force Base (Kelly Field Annex)"}},{"geometry": {"type": "Point", "coordinates": [-104.19256717555413, 47.70686848642964]}, "type": "Feature", "id": 187, "properties": {"NAME": "Sidney-Richland Municipal Airport", "OBJECTID": 260, "title": "Sidney-Richland Municipal Airport"}},{"geometry": {"type": "Point", "coordinates": [-84.4186155724571, 39.10334051335985]}, "type": "Feature", "id": 188, "properties": {"NAME": "Cincinnati Municipal Airport Lunken Field", "OBJECTID": 261, "title": "Cincinnati Municipal Airport Lunken Field"}},{"geometry": {"type": "Point", "coordinates": [-91.19447056548557, 39.943025316358046]}, "type": "Feature", "id": 189, "properties": {"NAME": "Quincy Regional-Baldwin Field", "OBJECTID": 262, "title": "Quincy Regional-Baldwin Field"}},{"geometry": {"type": "Point", "coordinates": [-81.68333690747278, 41.517508102038335]}, "type": "Feature", "id": 190, "properties": {"NAME": "Burke Lakefront Airport", "OBJECTID": 263, "title": "Burke Lakefront Airport"}},{"geometry": {"type": "Point", "coordinates": [-80.63435704142125, 32.41217328361728]}, "type": "Feature", "id": 191, "properties": {"NAME": "Beaufort County Airport", "OBJECTID": 265, "title": "Beaufort County Airport"}},{"geometry": {"type": "Point", "coordinates": [-86.24689457368686, 44.27248032030087]}, "type": "Feature", "id": 192, "properties": {"NAME": "Manistee County-Blacker Airport", "OBJECTID": 266, "title": "Manistee County-Blacker Airport"}},{"geometry": {"type": "Point", "coordinates": [-80.22200311083492, 36.13372908971297]}, "type": "Feature", "id": 193, "properties": {"NAME": "Smith Reynolds Airport", "OBJECTID": 268, "title": "Smith Reynolds Airport"}},{"geometry": {"type": "Point", "coordinates": [-83.59185293696805, 32.6401492258351]}, "type": "Feature", "id": 194, "properties": {"NAME": "Robins Air Force Base", "OBJECTID": 272, "title": "Robins Air Force Base"}},{"geometry": {"type": "Point", "coordinates": [-103.09539904201597, 42.83756297476549]}, "type": "Feature", "id": 195, "properties": {"NAME": "Chadron Municipal Airport", "OBJECTID": 273, "title": "Chadron Municipal Airport"}},{"geometry": {"type": "Point", "coordinates": [-75.9652520563771, 40.378508100805675]}, "type": "Feature", "id": 196, "properties": {"NAME": "Reading Regional/carl A Spaatz Field", "OBJECTID": 274, "title": "Reading Regional/carl A Spaatz Field"}},{"geometry": {"type": "Point", "coordinates": [-120.51392987338335, 37.28475503873932]}, "type": "Feature", "id": 197, "properties": {"NAME": "Merced Regional//macready Field", "OBJECTID": 275, "title": "Merced Regional//macready Field"}},{"geometry": {"type": "Point", "coordinates": [-104.26328728582592, 32.33747731811172]}, "type": "Feature", "id": 198, "properties": {"NAME": "Cavern City Air Terminal Airport", "OBJECTID": 276, "title": "Cavern City Air Terminal Airport"}},{"geometry": {"type": "Point", "coordinates": [-97.0857018573954, 36.16122831672692]}, "type": "Feature", "id": 199, "properties": {"NAME": "Stillwater Regional Airport", "OBJECTID": 278, "title": "Stillwater Regional Airport"}},{"geometry": {"type": "Point", "coordinates": [-117.21311589151895, 32.698199764228946]}, "type": "Feature", "id": 200, "properties": {"NAME": "North Island Naval Air Station /Halsey Field", "OBJECTID": 279, "title": "North Island Naval Air Station /Halsey Field"}},{"geometry": {"type": "Point", "coordinates": [-98.2285650614188, 44.38520156338109]}, "type": "Feature", "id": 201, "properties": {"NAME": "Huron Regional Airport", "OBJECTID": 283, "title": "Huron Regional Airport"}},{"geometry": {"type": "Point", "coordinates": [-103.07928713854227, 34.42514474175579]}, "type": "Feature", "id": 202, "properties": {"NAME": "Clovis Municipal Airport", "OBJECTID": 285, "title": "Clovis Municipal Airport"}},{"geometry": {"type": "Point", "coordinates": [-108.15639515952864, 32.63655221196649]}, "type": "Feature", "id": 203, "properties": {"NAME": "Grant County Airport", "OBJECTID": 290, "title": "Grant County Airport"}},{"geometry": {"type": "Point", "coordinates": [-91.12551263525074, 40.783232445456065]}, "type": "Feature", "id": 204, "properties": {"NAME": "Southeast Iowa Regional Airport", "OBJECTID": 293, "title": "Southeast Iowa Regional Airport"}},{"geometry": {"type": "Point", "coordinates": [-93.06034970240592, 44.934631018249945]}, "type": "Feature", "id": 205, "properties": {"NAME": "St. Paul Downtown Airport / Holman Field", "OBJECTID": 295, "title": "St. Paul Downtown Airport / Holman Field"}},{"geometry": {"type": "Point", "coordinates": [-76.36050198159751, 37.08284045545622]}, "type": "Feature", "id": 206, "properties": {"NAME": "Langley Air Force Base", "OBJECTID": 297, "title": "Langley Air Force Base"}},{"geometry": {"type": "Point", "coordinates": [-98.67820356544217, 46.92972985116205]}, "type": "Feature", "id": 207, "properties": {"NAME": "Jamestown Regional Airport", "OBJECTID": 298, "title": "Jamestown Regional Airport"}},{"geometry": {"type": "Point", "coordinates": [-111.91053897901475, 33.6228941425552]}, "type": "Feature", "id": 208, "properties": {"NAME": "Scottsdale Airport", "OBJECTID": 299, "title": "Scottsdale Airport"}},{"geometry": {"type": "Point", "coordinates": [-94.59276542000617, 39.12317598892554]}, "type": "Feature", "id": 209, "properties": {"NAME": "Charles B. Wheeler Downtown Airport", "OBJECTID": 301, "title": "Charles B. Wheeler Downtown Airport"}},{"geometry": {"type": "Point", "coordinates": [-109.75485505165693, 38.75496197304187]}, "type": "Feature", "id": 210, "properties": {"NAME": "Canyonlands Field Airport", "OBJECTID": 302, "title": "Canyonlands Field Airport"}},{"geometry": {"type": "Point", "coordinates": [-115.03426483034332, 36.23620229367157]}, "type": "Feature", "id": 211, "properties": {"NAME": "Nellis Air Force Base", "OBJECTID": 303, "title": "Nellis Air Force Base"}},{"geometry": {"type": "Point", "coordinates": [-121.92751320024081, 38.262672045684326]}, "type": "Feature", "id": 212, "properties": {"NAME": "Travis Air Force Base", "OBJECTID": 306, "title": "Travis Air Force Base"}},{"geometry": {"type": "Point", "coordinates": [-107.95084236585228, 43.96571969657407]}, "type": "Feature", "id": 213, "properties": {"NAME": "Worland Municipal Airport", "OBJECTID": 307, "title": "Worland Municipal Airport"}},{"geometry": {"type": "Point", "coordinates": [-96.18500906385657, 48.06567521603165]}, "type": "Feature", "id": 214, "properties": {"NAME": "Thief River Falls Regional Airport", "OBJECTID": 310, "title": "Thief River Falls Regional Airport"}},{"geometry": {"type": "Point", "coordinates": [-71.87570983087352, 42.26734760769739]}, "type": "Feature", "id": 215, "properties": {"NAME": "Worcester Regional Airport", "OBJECTID": 313, "title": "Worcester Regional Airport"}},{"geometry": {"type": "Point", "coordinates": [-98.90834281997559, 48.11459095893588]}, "type": "Feature", "id": 216, "properties": {"NAME": "Devils Lake Regional Airport", "OBJECTID": 314, "title": "Devils Lake Regional Airport"}},{"geometry": {"type": "Point", "coordinates": [-90.65206233169351, 38.66211813119418]}, "type": "Feature", "id": 217, "properties": {"NAME": "Spirit Of St Louis Airport", "OBJECTID": 315, "title": "Spirit Of St Louis Airport"}},{"geometry": {"type": "Point", "coordinates": [-78.8986970458867, 41.17828617938943]}, "type": "Feature", "id": 218, "properties": {"NAME": "Dubois Regional Airport", "OBJECTID": 316, "title": "Dubois Regional Airport"}},{"geometry": {"type": "Point", "coordinates": [-81.77579612690056, 26.152291740564635]}, "type": "Feature", "id": 219, "properties": {"NAME": "Naples Municipal Airport", "OBJECTID": 320, "title": "Naples Municipal Airport"}},{"geometry": {"type": "Point", "coordinates": [-117.14174689692379, 32.86835078542924]}, "type": "Feature", "id": 220, "properties": {"NAME": "Miramar Marine Corps Air Station", "OBJECTID": 321, "title": "Miramar Marine Corps Air Station"}},{"geometry": {"type": "Point", "coordinates": [-83.32635091905706, 33.94860152187897]}, "type": "Feature", "id": 221, "properties": {"NAME": "Athens/ben Epps Airport", "OBJECTID": 323, "title": "Athens/ben Epps Airport"}},{"geometry": {"type": "Point", "coordinates": [-69.79731829170134, 44.32065905685971]}, "type": "Feature", "id": 222, "properties": {"NAME": "Augusta State Airport", "OBJECTID": 328, "title": "Augusta State Airport"}},{"geometry": {"type": "Point", "coordinates": [-73.413408234548, 40.728789285164055]}, "type": "Feature", "id": 223, "properties": {"NAME": "Republic Airport", "OBJECTID": 330, "title": "Republic Airport"}},{"geometry": {"type": "Point", "coordinates": [-81.12416746923105, 37.787333420519474]}, "type": "Feature", "id": 224, "properties": {"NAME": "Raleigh County Memorial Airport", "OBJECTID": 331, "title": "Raleigh County Memorial Airport"}},{"geometry": {"type": "Point", "coordinates": [-89.01108877199289, 37.754979045067614]}, "type": "Feature", "id": 225, "properties": {"NAME": "Williamson County Regional Airport", "OBJECTID": 332, "title": "Williamson County Regional Airport"}},{"geometry": {"type": "Point", "coordinates": [-76.86700226210132, 38.81084076190547]}, "type": "Feature", "id": 226, "properties": {"NAME": "Andrews Air Force Base", "OBJECTID": 333, "title": "Andrews Air Force Base"}},{"geometry": {"type": "Point", "coordinates": [-88.11456234808338, 45.818369436783485]}, "type": "Feature", "id": 227, "properties": {"NAME": "Ford Airport", "OBJECTID": 339, "title": "Ford Airport"}},{"geometry": {"type": "Point", "coordinates": [-122.91061524030982, 48.70834058283316]}, "type": "Feature", "id": 228, "properties": {"NAME": "Orcas Island Airport", "OBJECTID": 342, "title": "Orcas Island Airport"}},{"geometry": {"type": "Point", "coordinates": [-111.11765118843226, 44.688395536796634]}, "type": "Feature", "id": 229, "properties": {"NAME": "Yellowstone Airport", "OBJECTID": 345, "title": "Yellowstone Airport"}},{"geometry": {"type": "Point", "coordinates": [-84.91338932213296, 45.425573595302865]}, "type": "Feature", "id": 230, "properties": {"NAME": "Harbor Springs Airport", "OBJECTID": 346, "title": "Harbor Springs Airport"}},{"geometry": {"type": "Point", "coordinates": [-108.78931950132579, 35.51106356792326]}, "type": "Feature", "id": 231, "properties": {"NAME": "Gallup Municipal Airport", "OBJECTID": 347, "title": "Gallup Municipal Airport"}},{"geometry": {"type": "Point", "coordinates": [-74.20619576810162, 44.38531494496647]}, "type": "Feature", "id": 232, "properties": {"NAME": "Adirondack Regional Airport", "OBJECTID": 348, "title": "Adirondack Regional Airport"}},{"geometry": {"type": "Point", "coordinates": [-104.49651185276906, 38.28914422407041]}, "type": "Feature", "id": 233, "properties": {"NAME": "Pueblo Memorial Airport", "OBJECTID": 350, "title": "Pueblo Memorial Airport"}},{"geometry": {"type": "Point", "coordinates": [-87.41278366630081, 41.61628580587285]}, "type": "Feature", "id": 234, "properties": {"NAME": "Gary/chicago International Airport", "OBJECTID": 351, "title": "Gary/chicago International Airport"}},{"geometry": {"type": "Point", "coordinates": [-79.25803120558277, 42.153397343647555]}, "type": "Feature", "id": 235, "properties": {"NAME": "Chautauqua County/Jamestown Airport", "OBJECTID": 352, "title": "Chautauqua County/Jamestown Airport"}},{"geometry": {"type": "Point", "coordinates": [-112.08256702012125, 33.68831115077603]}, "type": "Feature", "id": 236, "properties": {"NAME": "Phoenix Deer Valley Airport", "OBJECTID": 353, "title": "Phoenix Deer Valley Airport"}},{"geometry": {"type": "Point", "coordinates": [-99.96543267239633, 37.76312845718786]}, "type": "Feature", "id": 237, "properties": {"NAME": "Dodge City Regional Airport", "OBJECTID": 355, "title": "Dodge City Regional Airport"}},{"geometry": {"type": "Point", "coordinates": [-92.14074265217198, 37.741637881300164]}, "type": "Feature", "id": 238, "properties": {"NAME": "Waynesville-St. Robert Regional Forney Field Airport", "OBJECTID": 357, "title": "Waynesville-St. Robert Regional Forney Field Airp*"}},{"geometry": {"type": "Point", "coordinates": [-94.49827522754089, 37.15182062452294]}, "type": "Feature", "id": 239, "properties": {"NAME": "Joplin Regional Airport", "OBJECTID": 358, "title": "Joplin Regional Airport"}},{"geometry": {"type": "Point", "coordinates": [-78.64012401258589, 41.80307626480396]}, "type": "Feature", "id": 240, "properties": {"NAME": "Bradford Regional Airport", "OBJECTID": 359, "title": "Bradford Regional Airport"}},{"geometry": {"type": "Point", "coordinates": [-97.15473082689664, 44.91397968483648]}, "type": "Feature", "id": 241, "properties": {"NAME": "Watertown Regional Airport", "OBJECTID": 360, "title": "Watertown Regional Airport"}},{"geometry": {"type": "Point", "coordinates": [-72.94961630253795, 43.52991582922624]}, "type": "Feature", "id": 242, "properties": {"NAME": "Rutland - Southern Vermont Regional Airport", "OBJECTID": 361, "title": "Rutland - Southern Vermont Regional Airport"}},{"geometry": {"type": "Point", "coordinates": [-87.61022720275002, 34.74531251660363]}, "type": "Feature", "id": 243, "properties": {"NAME": "Northwest Alabama Regional Airport", "OBJECTID": 362, "title": "Northwest Alabama Regional Airport"}},{"geometry": {"type": "Point", "coordinates": [-97.65217823622572, 38.79097273535615]}, "type": "Feature", "id": 244, "properties": {"NAME": "Salina Municipal Airport", "OBJECTID": 364, "title": "Salina Municipal Airport"}},{"geometry": {"type": "Point", "coordinates": [-81.43920666738046, 39.34511171858372]}, "type": "Feature", "id": 245, "properties": {"NAME": "Mid-Ohio Valley Regional Airport", "OBJECTID": 366, "title": "Mid-Ohio Valley Regional Airport"}},{"geometry": {"type": "Point", "coordinates": [-87.09372804137189, 45.7226755349933]}, "type": "Feature", "id": 246, "properties": {"NAME": "Delta County Airport", "OBJECTID": 368, "title": "Delta County Airport"}},{"geometry": {"type": "Point", "coordinates": [-110.00567766977139, 34.26547732463382]}, "type": "Feature", "id": 247, "properties": {"NAME": "Show Low Regional Airport", "OBJECTID": 369, "title": "Show Low Regional Airport"}},{"geometry": {"type": "Point", "coordinates": [-109.50992822389901, 40.44092317921587]}, "type": "Feature", "id": 248, "properties": {"NAME": "Vernal Regional Airport", "OBJECTID": 370, "title": "Vernal Regional Airport"}},{"geometry": {"type": "Point", "coordinates": [-90.66042277834936, 29.56650532800296]}, "type": "Feature", "id": 249, "properties": {"NAME": "Houma-Terrebonne Airport", "OBJECTID": 371, "title": "Houma-Terrebonne Airport"}},{"geometry": {"type": "Point", "coordinates": [-112.419622193071, 34.654449284911834]}, "type": "Feature", "id": 250, "properties": {"NAME": "Ernest A. Love Field Airport", "OBJECTID": 373, "title": "Ernest A. Love Field Airport"}},{"geometry": {"type": "Point", "coordinates": [-80.7091392019309, 35.387781900444054]}, "type": "Feature", "id": 251, "properties": {"NAME": "Concord Regional Airport", "OBJECTID": 377, "title": "Concord Regional Airport"}},{"geometry": {"type": "Point", "coordinates": [-94.19184068654522, 42.551201557555146]}, "type": "Feature", "id": 252, "properties": {"NAME": "Fort Dodge Regional Airport", "OBJECTID": 378, "title": "Fort Dodge Regional Airport"}},{"geometry": {"type": "Point", "coordinates": [-90.9856200186614, 33.48288710274909]}, "type": "Feature", "id": 253, "properties": {"NAME": "Mid Delta Regional Airport", "OBJECTID": 379, "title": "Mid Delta Regional Airport"}},{"geometry": {"type": "Point", "coordinates": [-80.17070869830917, 26.197283813971637]}, "type": "Feature", "id": 254, "properties": {"NAME": "Fort Lauderdale Executive Airport", "OBJECTID": 380, "title": "Fort Lauderdale Executive Airport"}},{"geometry": {"type": "Point", "coordinates": [-83.42051054977583, 42.665644200800216]}, "type": "Feature", "id": 255, "properties": {"NAME": "Oakland County International Airport", "OBJECTID": 382, "title": "Oakland County International Airport"}},{"geometry": {"type": "Point", "coordinates": [-115.57875565001206, 32.83422386570726]}, "type": "Feature", "id": 256, "properties": {"NAME": "Imperial County Airport", "OBJECTID": 384, "title": "Imperial County Airport"}},{"geometry": {"type": "Point", "coordinates": [-80.3994752388117, 37.858313469924326]}, "type": "Feature", "id": 257, "properties": {"NAME": "Greenbrier Valley Airport", "OBJECTID": 385, "title": "Greenbrier Valley Airport"}},{"geometry": {"type": "Point", "coordinates": [-105.86656607761705, 37.43492303727618]}, "type": "Feature", "id": 258, "properties": {"NAME": "San Luis Valley Regional/bergman Field", "OBJECTID": 386, "title": "San Luis Valley Regional/bergman Field"}},{"geometry": {"type": "Point", "coordinates": [-118.84145789889016, 45.69506188476254]}, "type": "Feature", "id": 259, "properties": {"NAME": "Eastern Oregon Regional At Pendleton Airport", "OBJECTID": 387, "title": "Eastern Oregon Regional At Pendleton Airport"}},{"geometry": {"type": "Point", "coordinates": [-83.56031082573543, 45.07809163927152]}, "type": "Feature", "id": 260, "properties": {"NAME": "Alpena County Regional Airport", "OBJECTID": 388, "title": "Alpena County Regional Airport"}},{"geometry": {"type": "Point", "coordinates": [-78.83394694221357, 40.31611901110074]}, "type": "Feature", "id": 261, "properties": {"NAME": "John Murtha Johnstown-Cambria County Airport", "OBJECTID": 389, "title": "John Murtha Johnstown-Cambria County Airport"}},{"geometry": {"type": "Point", "coordinates": [-78.89644680942524, 38.26384059994746]}, "type": "Feature", "id": 262, "properties": {"NAME": "Shenandoah Valley Regional Airport", "OBJECTID": 392, "title": "Shenandoah Valley Regional Airport"}},{"geometry": {"type": "Point", "coordinates": [-113.09885762620371, 37.700971599218974]}, "type": "Feature", "id": 263, "properties": {"NAME": "Cedar City Regional Airport", "OBJECTID": 393, "title": "Cedar City Regional Airport"}},{"geometry": {"type": "Point", "coordinates": [-100.95986985026911, 37.044228270630924]}, "type": "Feature", "id": 264, "properties": {"NAME": "Liberal Mid-America Regional Airport", "OBJECTID": 395, "title": "Liberal Mid-America Regional Airport"}},{"geometry": {"type": "Point", "coordinates": [-98.30964763402892, 40.96755007128087]}, "type": "Feature", "id": 265, "properties": {"NAME": "Central Nebraska Regional Airport", "OBJECTID": 396, "title": "Central Nebraska Regional Airport"}},{"geometry": {"type": "Point", "coordinates": [-72.30419509136038, 43.62611987002816]}, "type": "Feature", "id": 266, "properties": {"NAME": "Lebanon Municipal Airport", "OBJECTID": 397, "title": "Lebanon Municipal Airport"}},{"geometry": {"type": "Point", "coordinates": [-71.28903069722156, 42.46996169859318]}, "type": "Feature", "id": 267, "properties": {"NAME": "Laurence G Hanscom Field Airport", "OBJECTID": 399, "title": "Laurence G Hanscom Field Airport"}},{"geometry": {"type": "Point", "coordinates": [-108.62806666902708, 37.30300582827056]}, "type": "Feature", "id": 268, "properties": {"NAME": "Cortez Municipal Airport", "OBJECTID": 400, "title": "Cortez Municipal Airport"}},{"geometry": {"type": "Point", "coordinates": [-96.91849438256219, 28.852560963565452]}, "type": "Feature", "id": 269, "properties": {"NAME": "Victoria Regional Airport", "OBJECTID": 401, "title": "Victoria Regional Airport"}},{"geometry": {"type": "Point", "coordinates": [-99.27317564803081, 38.84222865959924]}, "type": "Feature", "id": 270, "properties": {"NAME": "Hays Regional Airport", "OBJECTID": 402, "title": "Hays Regional Airport"}},{"geometry": {"type": "Point", "coordinates": [-92.83897999528779, 47.38659134027762]}, "type": "Feature", "id": 271, "properties": {"NAME": "Chisholm-Hibbing Airport", "OBJECTID": 403, "title": "Chisholm-Hibbing Airport"}},{"geometry": {"type": "Point", "coordinates": [-95.46209000268607, 29.108644081003774]}, "type": "Feature", "id": 272, "properties": {"NAME": "Brazoria County Airport", "OBJECTID": 404, "title": "Brazoria County Airport"}},{"geometry": {"type": "Point", "coordinates": [-102.80187161695466, 46.797340470611516]}, "type": "Feature", "id": 273, "properties": {"NAME": "Dickinson - Theodore Roosevelt Regional Airport", "OBJECTID": 406, "title": "Dickinson - Theodore Roosevelt Regional Airport"}},{"geometry": {"type": "Point", "coordinates": [-77.60883526747739, 35.33145099144184]}, "type": "Feature", "id": 274, "properties": {"NAME": "Kinston Regional Jetport At Stallings Field", "OBJECTID": 407, "title": "Kinston Regional Jetport At Stallings Field"}},{"geometry": {"type": "Point", "coordinates": [-83.6492149569612, 32.69285624687694]}, "type": "Feature", "id": 275, "properties": {"NAME": "Middle Georgia Regional Airport", "OBJECTID": 410, "title": "Middle Georgia Regional Airport"}},{"geometry": {"type": "Point", "coordinates": [-100.68367621447567, 41.12622892805757]}, "type": "Feature", "id": 276, "properties": {"NAME": "North Platte Regional Airport Lee Bird Field", "OBJECTID": 411, "title": "North Platte Regional Airport Lee Bird Field"}},{"geometry": {"type": "Point", "coordinates": [-80.22808629069272, 39.29664674169766]}, "type": "Feature", "id": 277, "properties": {"NAME": "North Central West Virginia Airport", "OBJECTID": 412, "title": "North Central West Virginia Airport"}},{"geometry": {"type": "Point", "coordinates": [-105.67501046720696, 41.31206259640328]}, "type": "Feature", "id": 278, "properties": {"NAME": "Laramie Regional Airport", "OBJECTID": 413, "title": "Laramie Regional Airport"}},{"geometry": {"type": "Point", "coordinates": [-71.57783369859419, 41.16811943960391]}, "type": "Feature", "id": 279, "properties": {"NAME": "Block Island State Airport", "OBJECTID": 414, "title": "Block Island State Airport"}},{"geometry": {"type": "Point", "coordinates": [-118.08456519406838, 34.62939393364928]}, "type": "Feature", "id": 280, "properties": {"NAME": "Palmdale Regional/usaf Plant 42 Airport", "OBJECTID": 415, "title": "Palmdale Regional/usaf Plant 42 Airport"}},{"geometry": {"type": "Point", "coordinates": [-81.14599115886239, 32.01002614354644]}, "type": "Feature", "id": 281, "properties": {"NAME": "Hunter Army Airfield", "OBJECTID": 416, "title": "Hunter Army Airfield"}},{"geometry": {"type": "Point", "coordinates": [-68.36156482858615, 44.449778131251605]}, "type": "Feature", "id": 282, "properties": {"NAME": "Hancock County-Bar Harbor Airport", "OBJECTID": 417, "title": "Hancock County-Bar Harbor Airport"}},{"geometry": {"type": "Point", "coordinates": [-103.5956490649744, 41.87403480451894]}, "type": "Feature", "id": 283, "properties": {"NAME": "Western Neb. Regional/william B. Heilig Field", "OBJECTID": 419, "title": "Western Neb. Regional/william B. Heilig Field"}},{"geometry": {"type": "Point", "coordinates": [-79.91631724245718, 39.642915822047144]}, "type": "Feature", "id": 284, "properties": {"NAME": "Morgantown Municipal-Walter L. Bill Hart Field", "OBJECTID": 420, "title": "Morgantown Municipal-Walter L. Bill Hart Field"}},{"geometry": {"type": "Point", "coordinates": [-90.25316976914604, 43.939245018272516]}, "type": "Feature", "id": 285, "properties": {"NAME": "Volk Field Airport", "OBJECTID": 421, "title": "Volk Field Airport"}},{"geometry": {"type": "Point", "coordinates": [-78.32003076646959, 40.29636900139701]}, "type": "Feature", "id": 286, "properties": {"NAME": "Altoona-Blair County Airport", "OBJECTID": 424, "title": "Altoona-Blair County Airport"}},{"geometry": {"type": "Point", "coordinates": [-117.82954526986987, 35.658746077531475]}, "type": "Feature", "id": 287, "properties": {"NAME": "Inyokern Airport", "OBJECTID": 425, "title": "Inyokern Airport"}},{"geometry": {"type": "Point", "coordinates": [-71.80337878545402, 41.34962544168724]}, "type": "Feature", "id": 288, "properties": {"NAME": "Westerly State Airport", "OBJECTID": 426, "title": "Westerly State Airport"}},{"geometry": {"type": "Point", "coordinates": [-81.67496823192829, 30.233862725010567]}, "type": "Feature", "id": 289, "properties": {"NAME": "Jacksonville Naval Air Station (Towers Field)", "OBJECTID": 427, "title": "Jacksonville Naval Air Station (Towers Field)"}},{"geometry": {"type": "Point", "coordinates": [-100.724425879156, 37.92753441210505]}, "type": "Feature", "id": 290, "properties": {"NAME": "Garden City Regional Airport", "OBJECTID": 428, "title": "Garden City Regional Airport"}},{"geometry": {"type": "Point", "coordinates": [-70.22072231764002, 42.07228664698772]}, "type": "Feature", "id": 291, "properties": {"NAME": "Provincetown Municipal Airport", "OBJECTID": 429, "title": "Provincetown Municipal Airport"}},{"geometry": {"type": "Point", "coordinates": [-93.33126851644278, 43.157799705616696]}, "type": "Feature", "id": 292, "properties": {"NAME": "Mason City Municipal Airport", "OBJECTID": 430, "title": "Mason City Municipal Airport"}},{"geometry": {"type": "Point", "coordinates": [-82.9278101675381, 39.81378572520532]}, "type": "Feature", "id": 293, "properties": {"NAME": "Rickenbacker International Airport", "OBJECTID": 431, "title": "Rickenbacker International Airport"}},{"geometry": {"type": "Point", "coordinates": [-99.00678678508751, 40.727034969444674]}, "type": "Feature", "id": 294, "properties": {"NAME": "Kearney Regional Airport", "OBJECTID": 433, "title": "Kearney Regional Airport"}},{"geometry": {"type": "Point", "coordinates": [-103.64235811161262, 48.17794657848049]}, "type": "Feature", "id": 295, "properties": {"NAME": "Sloulin Field International Airport", "OBJECTID": 434, "title": "Sloulin Field International Airport"}},{"geometry": {"type": "Point", "coordinates": [-124.23654205003288, 41.780172090850385]}, "type": "Feature", "id": 296, "properties": {"NAME": "Jack Mc Namara Field Airport", "OBJECTID": 436, "title": "Jack Mc Namara Field Airport"}},{"geometry": {"type": "Point", "coordinates": [-74.060837450789, 40.85010930018001]}, "type": "Feature", "id": 297, "properties": {"NAME": "Teterboro Airport", "OBJECTID": 437, "title": "Teterboro Airport"}},{"geometry": {"type": "Point", "coordinates": [-89.33706145485172, 31.467144748659678]}, "type": "Feature", "id": 298, "properties": {"NAME": "Hattiesburg-Laurel Regional Airport", "OBJECTID": 438, "title": "Hattiesburg-Laurel Regional Airport"}},{"geometry": {"type": "Point", "coordinates": [-123.49970918819531, 48.12019951941505]}, "type": "Feature", "id": 299, "properties": {"NAME": "William R Fairchild International Airport", "OBJECTID": 439, "title": "William R Fairchild International Airport"}},{"geometry": {"type": "Point", "coordinates": [-92.21963576751693, 38.81810004785433]}, "type": "Feature", "id": 300, "properties": {"NAME": "Columbia Regional Airport", "OBJECTID": 440, "title": "Columbia Regional Airport"}},{"geometry": {"type": "Point", "coordinates": [-122.4764898058288, 47.137683553291765]}, "type": "Feature", "id": 301, "properties": {"NAME": "Mcchord Air Force Base", "OBJECTID": 441, "title": "Mcchord Air Force Base"}},{"geometry": {"type": "Point", "coordinates": [-84.47239427603529, 46.25075873201439]}, "type": "Feature", "id": 302, "properties": {"NAME": "Chippewa County International Airport", "OBJECTID": 442, "title": "Chippewa County International Airport"}},{"geometry": {"type": "Point", "coordinates": [-107.90849056781008, 37.95376498407177]}, "type": "Feature", "id": 303, "properties": {"NAME": "Telluride Regional Airport", "OBJECTID": 443, "title": "Telluride Regional Airport"}},{"geometry": {"type": "Point", "coordinates": [-68.04480584480063, 46.68898152804002]}, "type": "Feature", "id": 304, "properties": {"NAME": "Northern Maine Regional Airport At Presque Isle Airport", "OBJECTID": 444, "title": "Northern Maine Regional Airport At Presque Isle A*"}},{"geometry": {"type": "Point", "coordinates": [-84.98716328754415, 32.33179610383763]}, "type": "Feature", "id": 305, "properties": {"NAME": "Lawson Army Airfield (Fort Benning)", "OBJECTID": 445, "title": "Lawson Army Airfield (Fort Benning)"}},{"geometry": {"type": "Point", "coordinates": [-123.02437623992176, 48.5219776094566]}, "type": "Feature", "id": 306, "properties": {"NAME": "Friday Harbor Airport", "OBJECTID": 446, "title": "Friday Harbor Airport"}},{"geometry": {"type": "Point", "coordinates": [-69.09925703638538, 44.06008307040804]}, "type": "Feature", "id": 307, "properties": {"NAME": "Knox County Regional Airport", "OBJECTID": 448, "title": "Knox County Regional Airport"}},{"geometry": {"type": "Point", "coordinates": [-70.957806525151, 41.67656455022262]}, "type": "Feature", "id": 308, "properties": {"NAME": "New Bedford Regional Airport", "OBJECTID": 449, "title": "New Bedford Regional Airport"}},{"geometry": {"type": "Point", "coordinates": [-78.94619721162519, 43.107341514833706]}, "type": "Feature", "id": 309, "properties": {"NAME": "Niagara Falls International Airport", "OBJECTID": 450, "title": "Niagara Falls International Airport"}},{"geometry": {"type": "Point", "coordinates": [-75.71950223559594, 44.05567582350159]}, "type": "Feature", "id": 310, "properties": {"NAME": "Wheeler-Sack Army Airfield", "OBJECTID": 451, "title": "Wheeler-Sack Army Airfield"}},{"geometry": {"type": "Point", "coordinates": [-95.66361871359175, 38.95095087114527]}, "type": "Feature", "id": 311, "properties": {"NAME": "Forbes Field Airport", "OBJECTID": 452, "title": "Forbes Field Airport"}},{"geometry": {"type": "Point", "coordinates": [-72.53478407028024, 42.19402258544909]}, "type": "Feature", "id": 312, "properties": {"NAME": "Westover Arb/metropolitan Airport", "OBJECTID": 455, "title": "Westover Arb/metropolitan Airport"}},{"geometry": {"type": "Point", "coordinates": [-119.2072343408928, 34.200810811886015]}, "type": "Feature", "id": 313, "properties": {"NAME": "Oxnard Airport", "OBJECTID": 456, "title": "Oxnard Airport"}},{"geometry": {"type": "Point", "coordinates": [-100.28598158019855, 44.38270138744866]}, "type": "Feature", "id": 314, "properties": {"NAME": "Pierre Regional Airport", "OBJECTID": 457, "title": "Pierre Regional Airport"}},{"geometry": {"type": "Point", "coordinates": [-88.76990046373874, 34.26811437094102]}, "type": "Feature", "id": 315, "properties": {"NAME": "Tupelo Regional Airport", "OBJECTID": 458, "title": "Tupelo Regional Airport"}},{"geometry": {"type": "Point", "coordinates": [-100.92716538248061, 29.37421193002359]}, "type": "Feature", "id": 316, "properties": {"NAME": "Del Rio International Airport", "OBJECTID": 459, "title": "Del Rio International Airport"}},{"geometry": {"type": "Point", "coordinates": [-96.67084098027226, 39.14097887692526]}, "type": "Feature", "id": 317, "properties": {"NAME": "Manhattan Regional Airport", "OBJECTID": 460, "title": "Manhattan Regional Airport"}},{"geometry": {"type": "Point", "coordinates": [-85.52034954129283, 45.721170585847574]}, "type": "Feature", "id": 318, "properties": {"NAME": "Welke Airport", "OBJECTID": 461, "title": "Welke Airport"}},{"geometry": {"type": "Point", "coordinates": [-93.40217533915535, 48.56559150026766]}, "type": "Feature", "id": 319, "properties": {"NAME": "Falls International Airport", "OBJECTID": 462, "title": "Falls International Airport"}},{"geometry": {"type": "Point", "coordinates": [-94.13559123312365, 46.40175810870795]}, "type": "Feature", "id": 320, "properties": {"NAME": "Brainerd Lakes Regional Airport", "OBJECTID": 464, "title": "Brainerd Lakes Regional Airport"}},{"geometry": {"type": "Point", "coordinates": [-104.8104822328686, 41.15564564236047]}, "type": "Feature", "id": 321, "properties": {"NAME": "Cheyenne Regional/Jerry Olson Field Airport", "OBJECTID": 465, "title": "Cheyenne Regional/Jerry Olson Field Airport"}},{"geometry": {"type": "Point", "coordinates": [-108.45985235321626, 43.06424156498946]}, "type": "Feature", "id": 322, "properties": {"NAME": "Riverton Regional Airport", "OBJECTID": 466, "title": "Riverton Regional Airport"}},{"geometry": {"type": "Point", "coordinates": [-108.22995449677586, 36.741255800147144]}, "type": "Feature", "id": 323, "properties": {"NAME": "Four Corners Regional Airport", "OBJECTID": 467, "title": "Four Corners Regional Airport"}},{"geometry": {"type": "Point", "coordinates": [-106.98028927673715, 44.769200879191544]}, "type": "Feature", "id": 324, "properties": {"NAME": "Sheridan County Airport", "OBJECTID": 468, "title": "Sheridan County Airport"}},{"geometry": {"type": "Point", "coordinates": [-80.67910058155985, 41.26074407010901]}, "type": "Feature", "id": 325, "properties": {"NAME": "Youngstown-Warren Regional Airport", "OBJECTID": 469, "title": "Youngstown-Warren Regional Airport"}},{"geometry": {"type": "Point", "coordinates": [-85.27533839346756, 45.3047865310279]}, "type": "Feature", "id": 326, "properties": {"NAME": "Charlevoix Municipal Airport", "OBJECTID": 470, "title": "Charlevoix Municipal Airport"}},{"geometry": {"type": "Point", "coordinates": [-87.49249128537247, 36.672367919628414]}, "type": "Feature", "id": 327, "properties": {"NAME": "Campbell Army Airfield (Fort Campbell)", "OBJECTID": 472, "title": "Campbell Army Airfield (Fort Campbell)"}},{"geometry": {"type": "Point", "coordinates": [-91.48426223136659, 44.865813083284365]}, "type": "Feature", "id": 328, "properties": {"NAME": "Chippewa Valley Regional Airport", "OBJECTID": 473, "title": "Chippewa Valley Regional Airport"}},{"geometry": {"type": "Point", "coordinates": [-79.40675310715187, 40.2746189551105]}, "type": "Feature", "id": 329, "properties": {"NAME": "Arnold Palmer Regional Airport", "OBJECTID": 474, "title": "Arnold Palmer Regional Airport"}},{"geometry": {"type": "Point", "coordinates": [-81.33972513316263, 29.959255702269957]}, "type": "Feature", "id": 330, "properties": {"NAME": "St Augustine Airport", "OBJECTID": 475, "title": "St Augustine Airport"}},{"geometry": {"type": "Point", "coordinates": [-88.75187336456543, 32.33262998190963]}, "type": "Feature", "id": 331, "properties": {"NAME": "Key Field Airport", "OBJECTID": 476, "title": "Key Field Airport"}},{"geometry": {"type": "Point", "coordinates": [-106.3800097172454, 31.849505161517527]}, "type": "Feature", "id": 332, "properties": {"NAME": "Biggs Army Airfield (Fort Bliss)", "OBJECTID": 478, "title": "Biggs Army Airfield (Fort Bliss)"}},{"geometry": {"type": "Point", "coordinates": [-94.05989707218174, 45.546564038122256]}, "type": "Feature", "id": 333, "properties": {"NAME": "St Cloud Regional Airport", "OBJECTID": 479, "title": "St Cloud Regional Airport"}},{"geometry": {"type": "Point", "coordinates": [-74.5917096160673, 40.01559010387888]}, "type": "Feature", "id": 334, "properties": {"NAME": "Mc Guire Air Force Base", "OBJECTID": 480, "title": "Mc Guire Air Force Base"}},{"geometry": {"type": "Point", "coordinates": [-88.7729636414798, 37.06029491521724]}, "type": "Feature", "id": 335, "properties": {"NAME": "Barkley Regional Airport", "OBJECTID": 482, "title": "Barkley Regional Airport"}},{"geometry": {"type": "Point", "coordinates": [-94.93473063537238, 47.510730218373794]}, "type": "Feature", "id": 336, "properties": {"NAME": "Bemidji Regional Airport", "OBJECTID": 483, "title": "Bemidji Regional Airport"}},{"geometry": {"type": "Point", "coordinates": [-98.42184222823857, 45.44906368695763]}, "type": "Feature", "id": 337, "properties": {"NAME": "Aberdeen Regional Airport", "OBJECTID": 484, "title": "Aberdeen Regional Airport"}},{"geometry": {"type": "Point", "coordinates": [-76.92109840286963, 41.24184424000981]}, "type": "Feature", "id": 338, "properties": {"NAME": "Williamsport Regional Airport", "OBJECTID": 485, "title": "Williamsport Regional Airport"}},{"geometry": {"type": "Point", "coordinates": [-121.85843037839282, 39.79539415918106]}, "type": "Feature", "id": 339, "properties": {"NAME": "Chico Municipal Airport", "OBJECTID": 486, "title": "Chico Municipal Airport"}},{"geometry": {"type": "Point", "coordinates": [-94.71149396009156, 32.38401975579643]}, "type": "Feature", "id": 340, "properties": {"NAME": "East Texas Regional Airport", "OBJECTID": 487, "title": "East Texas Regional Airport"}},{"geometry": {"type": "Point", "coordinates": [-88.48906766179226, 47.16842563947512]}, "type": "Feature", "id": 341, "properties": {"NAME": "Houghton County Memorial Airport", "OBJECTID": 488, "title": "Houghton County Memorial Airport"}},{"geometry": {"type": "Point", "coordinates": [-115.79170647494902, 40.82492275543399]}, "type": "Feature", "id": 342, "properties": {"NAME": "Elko Regional Airport", "OBJECTID": 489, "title": "Elko Regional Airport"}},{"geometry": {"type": "Point", "coordinates": [-109.06520528293879, 41.594228374140016]}, "type": "Feature", "id": 343, "properties": {"NAME": "Rock Springs-Sweetwater County Airport", "OBJECTID": 490, "title": "Rock Springs-Sweetwater County Airport"}},{"geometry": {"type": "Point", "coordinates": [-79.01450271598975, 35.17083996037235]}, "type": "Feature", "id": 344, "properties": {"NAME": "Pope Air Force Base", "OBJECTID": 491, "title": "Pope Air Force Base"}},{"geometry": {"type": "Point", "coordinates": [-112.59592920416861, 42.90981220003323]}, "type": "Feature", "id": 345, "properties": {"NAME": "Pocatello Regional Airport", "OBJECTID": 492, "title": "Pocatello Regional Airport"}},{"geometry": {"type": "Point", "coordinates": [-109.02381772314709, 44.52020069949441]}, "type": "Feature", "id": 346, "properties": {"NAME": "Yellowstone Regional Airport", "OBJECTID": 493, "title": "Yellowstone Regional Airport"}},{"geometry": {"type": "Point", "coordinates": [-89.46663473264533, 45.63090832343153]}, "type": "Feature", "id": 347, "properties": {"NAME": "Rhinelander-Oneida County Airport", "OBJECTID": 494, "title": "Rhinelander-Oneida County Airport"}},{"geometry": {"type": "Point", "coordinates": [-84.79672727471797, 45.57092561074512]}, "type": "Feature", "id": 348, "properties": {"NAME": "Pellston Regional Airport Of Emmet County Airport", "OBJECTID": 495, "title": "Pellston Regional Airport Of Emmet County Airport"}},{"geometry": {"type": "Point", "coordinates": [-92.4003512233972, 42.55708870237055]}, "type": "Feature", "id": 349, "properties": {"NAME": "Waterloo Regional Airport", "OBJECTID": 496, "title": "Waterloo Regional Airport"}},{"geometry": {"type": "Point", "coordinates": [-121.73320773483528, 42.15614433415635]}, "type": "Feature", "id": 350, "properties": {"NAME": "Klamath Falls Airport", "OBJECTID": 497, "title": "Klamath Falls Airport"}},{"geometry": {"type": "Point", "coordinates": [-89.83520009082349, 38.54517416622235]}, "type": "Feature", "id": 351, "properties": {"NAME": "Scott Air Force Base/midamerica Airport", "OBJECTID": 498, "title": "Scott Air Force Base/midamerica Airport"}},{"geometry": {"type": "Point", "coordinates": [-94.02070068834712, 29.950838278372828]}, "type": "Feature", "id": 352, "properties": {"NAME": "Southeast Texas Regional Airport", "OBJECTID": 499, "title": "Southeast Texas Regional Airport"}},{"geometry": {"type": "Point", "coordinates": [-105.53937187353512, 44.348923987166074]}, "type": "Feature", "id": 353, "properties": {"NAME": "Gillette-Campbell County Airport", "OBJECTID": 500, "title": "Gillette-Campbell County Airport"}},{"geometry": {"type": "Point", "coordinates": [-81.46631924079321, 31.25903995788542]}, "type": "Feature", "id": 354, "properties": {"NAME": "Brunswick Golden Isles Airport", "OBJECTID": 502, "title": "Brunswick Golden Isles Airport"}},{"geometry": {"type": "Point", "coordinates": [-114.48776251614566, 42.48181202732127]}, "type": "Feature", "id": 355, "properties": {"NAME": "Joslin Field - Magic Valley Regional Airport", "OBJECTID": 503, "title": "Joslin Field - Magic Valley Regional Airport"}},{"geometry": {"type": "Point", "coordinates": [-118.28901385838805, 46.09478395052986]}, "type": "Feature", "id": 356, "properties": {"NAME": "Walla Walla Regional Airport", "OBJECTID": 504, "title": "Walla Walla Regional Airport"}},{"geometry": {"type": "Point", "coordinates": [-93.99103481579715, 33.45372798390849]}, "type": "Feature", "id": 357, "properties": {"NAME": "Texarkana Regional-Webb Field", "OBJECTID": 505, "title": "Texarkana Regional-Webb Field"}},{"geometry": {"type": "Point", "coordinates": [-86.23544443976903, 43.16768015299289]}, "type": "Feature", "id": 358, "properties": {"NAME": "Muskegon County Airport", "OBJECTID": 506, "title": "Muskegon County Airport"}},{"geometry": {"type": "Point", "coordinates": [-112.49748471824091, 45.95481253452016]}, "type": "Feature", "id": 359, "properties": {"NAME": "Bert Mooney Airport", "OBJECTID": 507, "title": "Bert Mooney Airport"}},{"geometry": {"type": "Point", "coordinates": [-105.01134617457103, 40.45183353970668]}, "type": "Feature", "id": 360, "properties": {"NAME": "Fort Collins-Loveland Municipal Airport", "OBJECTID": 508, "title": "Fort Collins-Loveland Municipal Airport"}},{"geometry": {"type": "Point", "coordinates": [-117.38301207758036, 34.597476991332655]}, "type": "Feature", "id": 361, "properties": {"NAME": "Southern California Logistics Airport", "OBJECTID": 509, "title": "Southern California Logistics Airport"}},{"geometry": {"type": "Point", "coordinates": [-117.10959678540286, 46.74386712129842]}, "type": "Feature", "id": 362, "properties": {"NAME": "Pullman/moscow Regional Airport", "OBJECTID": 510, "title": "Pullman/moscow Regional Airport"}},{"geometry": {"type": "Point", "coordinates": [-111.44837220042194, 36.92608861689615]}, "type": "Feature", "id": 363, "properties": {"NAME": "Page Municipal Airport", "OBJECTID": 512, "title": "Page Municipal Airport"}},{"geometry": {"type": "Point", "coordinates": [-72.88680712286174, 41.26375839533432]}, "type": "Feature", "id": 364, "properties": {"NAME": "Tweed-New Haven Airport", "OBJECTID": 513, "title": "Tweed-New Haven Airport"}},{"geometry": {"type": "Point", "coordinates": [-122.30198684835307, 47.5300056086989]}, "type": "Feature", "id": 365, "properties": {"NAME": "Boeing Field/king County International Airport", "OBJECTID": 514, "title": "Boeing Field/king County International Airport"}},{"geometry": {"type": "Point", "coordinates": [-104.530565389554, 33.301561459154584]}, "type": "Feature", "id": 366, "properties": {"NAME": "Roswell International Air Center Airport", "OBJECTID": 515, "title": "Roswell International Air Center Airport"}},{"geometry": {"type": "Point", "coordinates": [-76.88074903716245, 34.90317994246641]}, "type": "Feature", "id": 367, "properties": {"NAME": "Cherry Point Marine Corps Air Station /Cunningham Field", "OBJECTID": 516, "title": "Cherry Point Marine Corps Air Station /Cunningham*"}},{"geometry": {"type": "Point", "coordinates": [-117.28009493028986, 33.12825481542052]}, "type": "Feature", "id": 368, "properties": {"NAME": "Mc Clellan-Palomar Airport", "OBJECTID": 517, "title": "Mc Clellan-Palomar Airport"}},{"geometry": {"type": "Point", "coordinates": [-124.24704232021458, 43.41694917777204]}, "type": "Feature", "id": 369, "properties": {"NAME": "Southwest Oregon Regional Airport", "OBJECTID": 518, "title": "Southwest Oregon Regional Airport"}},{"geometry": {"type": "Point", "coordinates": [-88.59136639247976, 33.45033919217042]}, "type": "Feature", "id": 370, "properties": {"NAME": "Golden Triangle Regional Airport", "OBJECTID": 519, "title": "Golden Triangle Regional Airport"}},{"geometry": {"type": "Point", "coordinates": [-106.93303842549074, 38.53395011841474]}, "type": "Feature", "id": 371, "properties": {"NAME": "Gunnison-Crested Butte Regional Airport", "OBJECTID": 520, "title": "Gunnison-Crested Butte Regional Airport"}},{"geometry": {"type": "Point", "coordinates": [-117.25902699637055, 33.881945909678905]}, "type": "Feature", "id": 372, "properties": {"NAME": "March Air Reserve Base", "OBJECTID": 521, "title": "March Air Reserve Base"}},{"geometry": {"type": "Point", "coordinates": [-121.23831904112694, 37.89417204988109]}, "type": "Feature", "id": 373, "properties": {"NAME": "Stockton Metropolitan Airport", "OBJECTID": 522, "title": "Stockton Metropolitan Airport"}},{"geometry": {"type": "Point", "coordinates": [-120.95443399856987, 37.62582205529026]}, "type": "Feature", "id": 374, "properties": {"NAME": "Modesto City-County-Harry Sham Field", "OBJECTID": 523, "title": "Modesto City-County-Harry Sham Field"}},{"geometry": {"type": "Point", "coordinates": [-76.28926496170948, 36.93746943023979]}, "type": "Feature", "id": 375, "properties": {"NAME": "Norfolk Ns (Chambers Field) Airport", "OBJECTID": 524, "title": "Norfolk Ns (Chambers Field) Airport"}},{"geometry": {"type": "Point", "coordinates": [-83.27622271712352, 30.781377817485065]}, "type": "Feature", "id": 376, "properties": {"NAME": "Valdosta Regional Airport", "OBJECTID": 525, "title": "Valdosta Regional Airport"}},{"geometry": {"type": "Point", "coordinates": [-84.19447705265088, 31.535520979800935]}, "type": "Feature", "id": 377, "properties": {"NAME": "Southwest Georgia Regional Airport", "OBJECTID": 526, "title": "Southwest Georgia Regional Airport"}},{"geometry": {"type": "Point", "coordinates": [-90.70947872484925, 42.40200774484913]}, "type": "Feature", "id": 378, "properties": {"NAME": "Dubuque Regional Airport", "OBJECTID": 529, "title": "Dubuque Regional Airport"}},{"geometry": {"type": "Point", "coordinates": [-70.61388439674494, 41.39343052395441]}, "type": "Feature", "id": 379, "properties": {"NAME": "Marthas Vineyard Airport", "OBJECTID": 531, "title": "Marthas Vineyard Airport"}},{"geometry": {"type": "Point", "coordinates": [-73.46814055173564, 44.65095299994732]}, "type": "Feature", "id": 380, "properties": {"NAME": "Plattsburgh International Airport", "OBJECTID": 532, "title": "Plattsburgh International Airport"}},{"geometry": {"type": "Point", "coordinates": [-114.03090113119299, 40.71869988651508]}, "type": "Feature", "id": 381, "properties": {"NAME": "Wendover Airport", "OBJECTID": 533, "title": "Wendover Airport"}},{"geometry": {"type": "Point", "coordinates": [-98.49190100669102, 33.98880188220454]}, "type": "Feature", "id": 382, "properties": {"NAME": "Sheppard Air Force Base/wichita Falls Municipal Airport", "OBJECTID": 534, "title": "Sheppard Air Force Base/wichita Falls Municipal A*"}},{"geometry": {"type": "Point", "coordinates": [-85.44948339428902, 31.32102687368024]}, "type": "Feature", "id": 383, "properties": {"NAME": "Dothan Regional Airport", "OBJECTID": 535, "title": "Dothan Regional Airport"}},{"geometry": {"type": "Point", "coordinates": [-120.20575148506452, 47.39809485780836]}, "type": "Feature", "id": 384, "properties": {"NAME": "Pangborn Memorial Airport", "OBJECTID": 536, "title": "Pangborn Memorial Airport"}},{"geometry": {"type": "Point", "coordinates": [-96.38437529575197, 42.40261038073521]}, "type": "Feature", "id": 385, "properties": {"NAME": "Sioux Gateway/Col. Bud Day Field", "OBJECTID": 537, "title": "Sioux Gateway/Col. Bud Day Field"}},{"geometry": {"type": "Point", "coordinates": [-70.82327857103252, 43.07795282041758]}, "type": "Feature", "id": 386, "properties": {"NAME": "Portsmouth International At Pease Airport", "OBJECTID": 538, "title": "Portsmouth International At Pease Airport"}},{"geometry": {"type": "Point", "coordinates": [-93.22342346275633, 30.1260883460194]}, "type": "Feature", "id": 387, "properties": {"NAME": "Lake Charles Regional Airport", "OBJECTID": 539, "title": "Lake Charles Regional Airport"}},{"geometry": {"type": "Point", "coordinates": [-84.93886528418238, 32.516339138712056]}, "type": "Feature", "id": 388, "properties": {"NAME": "Columbus Metropolitan Airport", "OBJECTID": 540, "title": "Columbus Metropolitan Airport"}},{"geometry": {"type": "Point", "coordinates": [-111.6692610904542, 35.14031135655853]}, "type": "Feature", "id": 389, "properties": {"NAME": "Flagstaff Pulliam Airport", "OBJECTID": 541, "title": "Flagstaff Pulliam Airport"}},{"geometry": {"type": "Point", "coordinates": [-77.3853082374248, 35.63525707958979]}, "type": "Feature", "id": 390, "properties": {"NAME": "Pitt-Greenville Airport", "OBJECTID": 543, "title": "Pitt-Greenville Airport"}},{"geometry": {"type": "Point", "coordinates": [-81.99057621294111, 26.919572948511473]}, "type": "Feature", "id": 391, "properties": {"NAME": "Charlotte County Airport", "OBJECTID": 545, "title": "Charlotte County Airport"}},{"geometry": {"type": "Point", "coordinates": [-120.45745662544084, 34.89892180510458]}, "type": "Feature", "id": 392, "properties": {"NAME": "Santa Maria Pub/Capt G Allan Hancock Field", "OBJECTID": 546, "title": "Santa Maria Pub/Capt G Allan Hancock Field"}},{"geometry": {"type": "Point", "coordinates": [-79.20043388104091, 37.32539637374708]}, "type": "Feature", "id": 393, "properties": {"NAME": "Lynchburg Regional/Preston Glenn Field", "OBJECTID": 547, "title": "Lynchburg Regional/Preston Glenn Field"}},{"geometry": {"type": "Point", "coordinates": [-87.39536717149446, 46.35364759901046]}, "type": "Feature", "id": 394, "properties": {"NAME": "Sawyer International Airport", "OBJECTID": 548, "title": "Sawyer International Airport"}},{"geometry": {"type": "Point", "coordinates": [-89.6780961287455, 39.84421740521094]}, "type": "Feature", "id": 395, "properties": {"NAME": "Abraham Lincoln Capital Airport", "OBJECTID": 549, "title": "Abraham Lincoln Capital Airport"}},{"geometry": {"type": "Point", "coordinates": [-75.50948178038789, 38.34019671768755]}, "type": "Feature", "id": 396, "properties": {"NAME": "Salisbury-Ocean City Wicomico Regional Airport", "OBJECTID": 550, "title": "Salisbury-Ocean City Wicomico Regional Airport"}},{"geometry": {"type": "Point", "coordinates": [-90.34778391575605, 34.68506236503765]}, "type": "Feature", "id": 397, "properties": {"NAME": "Tunica Municipal Airport", "OBJECTID": 551, "title": "Tunica Municipal Airport"}},{"geometry": {"type": "Point", "coordinates": [-122.29340255509464, 40.50900514946716]}, "type": "Feature", "id": 398, "properties": {"NAME": "Redding Municipal Airport", "OBJECTID": 553, "title": "Redding Municipal Airport"}},{"geometry": {"type": "Point", "coordinates": [-114.2955656253219, 43.503785097635614]}, "type": "Feature", "id": 399, "properties": {"NAME": "Friedman Memorial Airport", "OBJECTID": 554, "title": "Friedman Memorial Airport"}},{"geometry": {"type": "Point", "coordinates": [-117.01540267668258, 46.37450611292314]}, "type": "Feature", "id": 400, "properties": {"NAME": "Lewiston-Nez Perce County Airport", "OBJECTID": 555, "title": "Lewiston-Nez Perce County Airport"}},{"geometry": {"type": "Point", "coordinates": [-79.7238918697708, 34.185367687896644]}, "type": "Feature", "id": 401, "properties": {"NAME": "Florence Regional Airport", "OBJECTID": 556, "title": "Florence Regional Airport"}},{"geometry": {"type": "Point", "coordinates": [-100.49631436860244, 31.35775532007625]}, "type": "Feature", "id": 402, "properties": {"NAME": "San Angelo Regional/Mathis Field", "OBJECTID": 557, "title": "San Angelo Regional/Mathis Field"}},{"geometry": {"type": "Point", "coordinates": [-113.81643556577461, 35.99038231901096]}, "type": "Feature", "id": 403, "properties": {"NAME": "Grand Canyon West Airport", "OBJECTID": 558, "title": "Grand Canyon West Airport"}},{"geometry": {"type": "Point", "coordinates": [-115.19445582352296, 36.21069930128556]}, "type": "Feature", "id": 404, "properties": {"NAME": "North Las Vegas Airport", "OBJECTID": 560, "title": "North Las Vegas Airport"}},{"geometry": {"type": "Point", "coordinates": [-97.23052654690673, 31.611293471429292]}, "type": "Feature", "id": 405, "properties": {"NAME": "Waco Regional Airport", "OBJECTID": 562, "title": "Waco Regional Airport"}},{"geometry": {"type": "Point", "coordinates": [-120.54407036531205, 46.56817274574888]}, "type": "Feature", "id": 406, "properties": {"NAME": "Yakima Air Terminal/Mcallister Field", "OBJECTID": 563, "title": "Yakima Air Terminal/Mcallister Field"}},{"geometry": {"type": "Point", "coordinates": [-101.27803852600255, 48.25764680196892]}, "type": "Feature", "id": 407, "properties": {"NAME": "Minot International Airport", "OBJECTID": 564, "title": "Minot International Airport"}},{"geometry": {"type": "Point", "coordinates": [-106.46442785422568, 42.90800674020869]}, "type": "Feature", "id": 408, "properties": {"NAME": "Casper/Natrona County International Airport", "OBJECTID": 565, "title": "Casper/Natrona County International Airport"}},{"geometry": {"type": "Point", "coordinates": [-95.40239316575617, 32.354144723647494]}, "type": "Feature", "id": 409, "properties": {"NAME": "Tyler Pounds Regional Airport", "OBJECTID": 566, "title": "Tyler Pounds Regional Airport"}},{"geometry": {"type": "Point", "coordinates": [-98.4166450601079, 34.56771997602908]}, "type": "Feature", "id": 410, "properties": {"NAME": "Lawton-Fort Sill Regional Airport", "OBJECTID": 567, "title": "Lawton-Fort Sill Regional Airport"}},{"geometry": {"type": "Point", "coordinates": [-80.69747506482787, 32.22436723400443]}, "type": "Feature", "id": 411, "properties": {"NAME": "Hilton Head Airport", "OBJECTID": 568, "title": "Hilton Head Airport"}},{"geometry": {"type": "Point", "coordinates": [-96.36384031257347, 30.58858834251896]}, "type": "Feature", "id": 412, "properties": {"NAME": "Easterwood Field Airport", "OBJECTID": 569, "title": "Easterwood Field Airport"}},{"geometry": {"type": "Point", "coordinates": [-97.42584036365537, 25.90683732646795]}, "type": "Feature", "id": 413, "properties": {"NAME": "Brownsville/South Padre Island International Airport", "OBJECTID": 571, "title": "Brownsville/South Padre Island International Airp*"}},{"geometry": {"type": "Point", "coordinates": [-82.55803193367808, 38.36667446880182]}, "type": "Feature", "id": 414, "properties": {"NAME": "Tri-State/Milton J. Ferguson Field", "OBJECTID": 572, "title": "Tri-State/Milton J. Ferguson Field"}},{"geometry": {"type": "Point", "coordinates": [-94.36745105451672, 35.33658930739443]}, "type": "Feature", "id": 415, "properties": {"NAME": "Fort Smith Regional Airport", "OBJECTID": 573, "title": "Fort Smith Regional Airport"}},{"geometry": {"type": "Point", "coordinates": [-111.982762736393, 46.606812637971416]}, "type": "Feature", "id": 416, "properties": {"NAME": "Helena Regional Airport", "OBJECTID": 574, "title": "Helena Regional Airport"}},{"geometry": {"type": "Point", "coordinates": [-107.89425360097982, 38.50980202816146]}, "type": "Feature", "id": 417, "properties": {"NAME": "Montrose Regional Airport", "OBJECTID": 575, "title": "Montrose Regional Airport"}},{"geometry": {"type": "Point", "coordinates": [-99.68189720136007, 32.41131154190339]}, "type": "Feature", "id": 418, "properties": {"NAME": "Abilene Regional Airport", "OBJECTID": 576, "title": "Abilene Regional Airport"}},{"geometry": {"type": "Point", "coordinates": [-114.60598341713478, 32.656587889100535]}, "type": "Feature", "id": 419, "properties": {"NAME": "Yuma Marine Corps Air Station/Yuma International Airport", "OBJECTID": 577, "title": "Yuma Marine Corps Air Station/Yuma International *"}},{"geometry": {"type": "Point", "coordinates": [-97.17379033909981, 47.94727510234833]}, "type": "Feature", "id": 420, "properties": {"NAME": "Grand Forks International Airport", "OBJECTID": 578, "title": "Grand Forks International Airport"}},{"geometry": {"type": "Point", "coordinates": [-92.0376942593166, 32.51087187554168]}, "type": "Feature", "id": 421, "properties": {"NAME": "Monroe Regional Airport", "OBJECTID": 579, "title": "Monroe Regional Airport"}},{"geometry": {"type": "Point", "coordinates": [-76.4587243396146, 42.4913695168608]}, "type": "Feature", "id": 422, "properties": {"NAME": "Ithaca Tompkins Regional Airport", "OBJECTID": 581, "title": "Ithaca Tompkins Regional Airport"}},{"geometry": {"type": "Point", "coordinates": [-88.27781177958093, 40.03884051613289]}, "type": "Feature", "id": 423, "properties": {"NAME": "University Of Illinois-Willard Airport", "OBJECTID": 583, "title": "University Of Illinois-Willard Airport"}},{"geometry": {"type": "Point", "coordinates": [-122.8128883863825, 38.508993982549725]}, "type": "Feature", "id": 424, "properties": {"NAME": "Charles M. Schulz - Sonoma County Airport", "OBJECTID": 585, "title": "Charles M. Schulz - Sonoma County Airport"}},{"geometry": {"type": "Point", "coordinates": [-76.89161346170567, 42.15989743650067]}, "type": "Feature", "id": 425, "properties": {"NAME": "Elmira/Corning Regional Airport", "OBJECTID": 586, "title": "Elmira/Corning Regional Airport"}},{"geometry": {"type": "Point", "coordinates": [-124.10862486211101, 40.97811606840804]}, "type": "Feature", "id": 426, "properties": {"NAME": "Arcata Airport", "OBJECTID": 587, "title": "Arcata Airport"}},{"geometry": {"type": "Point", "coordinates": [-99.46154094957922, 27.54380362574591]}, "type": "Feature", "id": 427, "properties": {"NAME": "Laredo International Airport", "OBJECTID": 588, "title": "Laredo International Airport"}},{"geometry": {"type": "Point", "coordinates": [-75.97972417151146, 42.208564489891785]}, "type": "Feature", "id": 428, "properties": {"NAME": "Greater Binghamton/Edwin A Link Field", "OBJECTID": 589, "title": "Greater Binghamton/Edwin A Link Field"}},{"geometry": {"type": "Point", "coordinates": [-89.0972282049749, 42.19536884204058]}, "type": "Feature", "id": 429, "properties": {"NAME": "Chicago/Rockford International Airport", "OBJECTID": 591, "title": "Chicago/Rockford International Airport"}},